id,cityName,countryName,countryCode,latitude,longitude,population,tier
1,Tokyo,Japan,JP,35.687,139.7495,37785000,1
2,Jakarta,Indonesia,ID,-6.175,106.8275,33756000,1
3,Delhi,India,IN,28.61,77.23,32226000,1
4,Guangzhou,China,CN,23.13,113.26,26940000,1
5,Mumbai,India,IN,19.0761,72.8775,24973000,1
6,Manila,Philippines,PH,14.5958,120.9772,24922000,1
7,Shanghai,China,CN,31.2286,121.4747,24073000,1
8,São Paulo,Brazil,BR,-23.5504,-46.6339,23086000,1
9,Seoul,"Korea, South",KR,37.5667,126.9833,23016000,1
10,Mexico City,Mexico,MX,19.4333,-99.1333,21804000,1
11,Kolkāta,India,IN,22.5675,88.37,21747000,1
12,Cairo,Egypt,EG,30.0444,31.2358,20296000,1
13,Karachi,Pakistan,PK,24.86,67.01,20249000,1
14,Dhaka,Bangladesh,BD,23.7289,90.3944,19134000,1
15,New York,United States,US,40.6943,-73.9249,18832416,1
16,Beijing,China,CN,39.9067,116.3975,18522000,1
17,Bangkok,Thailand,TH,13.7525,100.4942,18007000,1
18,Shenzhen,China,CN,22.5415,114.0596,17619000,1
19,Moscow,Russia,RU,55.7506,37.6175,17332000,1
20,Buenos Aires,Argentina,AR,-34.6036,-58.3814,16710000,1
21,Lagos,Nigeria,NG,6.455,3.3841,16637000,1
22,Bangalore,India,IN,12.9789,77.5917,15386000,1
23,Ho Chi Minh City,Vietnam,VN,10.7756,106.7019,15136000,1
24,Ōsaka,Japan,JP,34.6939,135.5022,15126000,1
25,Chengdu,China,CN,30.66,104.0633,14645000,1
26,Istanbul,Turkey,TR,41.0136,28.955,14441000,1
27,Tehran,Iran,IR,35.6889,51.3897,14148000,1
28,Kinshasa,Congo (Kinshasa),CD,-4.3219,15.3119,12836000,1
29,Rio de Janeiro,Brazil,BR,-22.9111,-43.2056,12592000,1
30,Chennai,India,IN,13.0825,80.275,12395000,1
31,Xi’an,China,CN,34.2611,108.9422,12328000,1
32,Lahore,Pakistan,PK,31.5497,74.3436,12306000,1
33,Chongqing,China,CN,29.5637,106.5504,12135000,1
34,Los Angeles,United States,US,34.1141,-118.4068,11885717,1
35,London,United Kingdom,GB,51.5072,-0.1275,11262000,1
36,Paris,France,FR,48.8567,2.3522,11060000,1
37,Linyi,China,CN,35.1038,118.3564,10820000,1
38,Dongguan,China,CN,23.021,113.752,10646000,1
39,Baoding,China,CN,38.874,115.464,10546831,1
40,Hyderābād,India,IN,17.3617,78.4747,10494000,1
41,Tianjin,China,CN,39.1336,117.2054,10368000,1
42,Lima,Peru,PE,-12.06,-77.0375,10320000,1
43,Wuhan,China,CN,30.5934,114.3046,10251000,1
44,Nanyang,China,CN,32.9902,112.5285,9577771,1
45,Hangzhou,China,CN,30.267,120.153,9523000,1
46,Nagoya,Japan,JP,35.1833,136.9,9197000,1
47,Luanda,Angola,AO,-8.8383,13.2344,9051000,1
48,Foshan,China,CN,23.0214,113.1216,9042500,1
49,Kuala Lumpur,Malaysia,MY,3.1686,101.698,8911000,1
50,Zhoukou,China,CN,33.6367,114.7014,8677800,1
51,Tongshan,China,CN,34.261,117.1859,8669000,1
52,Hanoi,Vietnam,VN,21,105.85,8587100,1
53,Chicago,United States,US,41.8375,-87.6866,8489066,1
54,Nanjing,China,CN,32.0608,118.7789,8422000,1
55,Heze,China,CN,35.2343,115.4796,8287693,1
56,Pune,India,IN,18.5203,73.8567,8231000,1
57,Jining,China,CN,35.4151,116.5871,8081905,1
58,Bogotá,Colombia,CO,4.7111,-74.0722,8034649,1
59,Ahmedabad,India,IN,23.0225,72.5714,8009000,1
60,Shenyang,China,CN,41.8025,123.4281,7964000,1
61,Dar es Salaam,Tanzania,TZ,-6.8161,39.2803,7962000,1
62,Khartoum,Sudan,SD,15.6031,32.5265,7869000,1
63,Johannesburg,South Africa,ZA,-26.2044,28.0456,7860781,1
64,Fuyang,China,CN,32.89,115.814,7599913,1
65,Hong Kong,Hong Kong,HK,22.3,114.2,7450000,1
66,Ganzhou,China,CN,25.831,114.933,7396873,1
67,Shangqiu,China,CN,34.415,115.656,7325300,1
68,Cangzhou,China,CN,38.3047,116.8387,7300783,1
69,Riyadh,Saudi Arabia,SA,24.65,46.71,7237000,1
70,Santiago,Chile,CL,-33.4372,-70.6506,7171000,1
71,Zhumadian,China,CN,33.014,114.022,7008427,1
72,Zhanjiang,China,CN,21.2701,110.3575,6981236,1
73,Rangoon,Burma,MM,16.795,96.16,6874000,1
74,Yancheng,China,CN,33.35,120.1569,6709629,1
75,Bijie,China,CN,27.284,105.292,6686100,1
76,Xingtai,China,CN,37.0717,114.5048,6645766,1
77,Hengyang,China,CN,26.894,112.572,6645243,1
78,Shaoyang,China,CN,27.2395,111.4679,6563520,1
79,Surabaya,Indonesia,ID,-7.2458,112.7378,6556000,1
80,Sūrat,India,IN,21.205,72.84,6538000,1
81,Quanzhou,China,CN,24.8744,118.6757,6480000,1
82,Shangrao,China,CN,28.4551,117.9431,6435300,1
83,Zunyi,China,CN,27.722,107.031,6270700,1
84,Madrid,Spain,ES,40.4169,-3.7033,6211000,1
85,Baghdad,Iraq,IQ,33.3153,44.3661,6183000,1
86,Maoming,China,CN,21.6627,110.9255,6174050,1
87,Miami,United States,US,25.784,-80.2101,6113982,1
88,Xinyang,China,CN,32.149,114.091,6109106,1
89,Houston,United States,US,29.786,-95.3885,6046392,1
90,Singapore,Singapore,SG,1.3,103.8,5983000,1
91,Prayagraj,India,IN,25.4358,81.8464,5954391,1
92,Huanggang,China,CN,30.4537,114.8724,5882719,1
93,Dalian,China,CN,38.9,121.6,5871474,1
94,Ankara,Turkey,TR,39.93,32.85,5864049,1
95,Dallas,United States,US,32.7935,-96.7667,5843632,1
96,Qingdao,China,CN,36.0669,120.3827,5818255,1
97,Yulin,China,CN,22.654,110.181,5796766,1
98,Liaocheng,China,CN,36.4559,115.9852,5789863,1
99,Douala,Cameroon,CM,4.05,9.7,5768400,1
100,Qujing,China,CN,25.491,103.796,5765775,1
101,Nangandao,China,CN,35.3036,113.9268,5708191,1
102,Addis Ababa,Ethiopia,ET,9.03,38.74,5704000,1
103,Philadelphia,United States,US,40.0077,-75.1339,5696588,1
104,Toronto,Canada,CA,43.7417,-79.3733,5647656,1
105,Zhengzhou,China,CN,34.764,113.684,5621593,1
106,Nanchong,China,CN,30.8372,106.1106,5607565,1
107,Jinan,China,CN,36.6702,117.0207,5606374,1
108,Giza,Egypt,EG,29.987,31.2118,5598402,1
109,Saint Petersburg,Russia,RU,59.9375,30.3086,5597763,1
110,Jieyang,China,CN,23.551,116.3727,5577814,1
111,Dezhou,China,CN,37.436,116.359,5568235,1
112,Nairobi,Kenya,KE,-1.2864,36.8172,5545000,1
113,Guadalajara,Mexico,MX,20.6767,-103.3475,5525000,1
114,Tai’an,China,CN,36.202,117.087,5472217,1
115,Dazhou,China,CN,31.2093,107.4678,5385422,1
116,Belo Horizonte,Brazil,BR,-19.9281,-43.9419,5328000,1
117,Suzhou,China,CN,33.648,116.964,5324476,1
118,Monterrey,Mexico,MX,25.6844,-100.3181,5324281,1
119,Yongzhou,China,CN,26.42,111.613,5289824,1
120,Changde,China,CN,29.031,111.699,5279102,1
121,Xiangyang,China,CN,32.01,112.122,5260951,1
122,Atlanta,United States,US,33.7628,-84.422,5211164,1
123,Pudong,China,CN,31.2347,121.5064,5187200,1
124,Washington,United States,US,38.9047,-77.0163,5146120,1
125,Zhaotong,China,CN,27.338,103.717,5092611,1
126,Zhangzhou,China,CN,24.513,117.647,5054328,1
127,Yueyang,China,CN,29.3647,113.1309,5051922,1
128,Melbourne,Australia,AU,-37.8142,144.9631,5031195,1
129,Yichun,China,CN,27.816,114.417,5007702,1
130,Abidjan,Côte d’Ivoire,CI,5.3364,-4.0267,4980000,2
131,Guilin,China,CN,25.275,110.296,4931137,2
132,Pingdingshan,China,CN,33.7666,113.1926,4904701,2
133,Alexandria,Egypt,EG,31.1975,29.8925,4870000,2
134,Bozhou,China,CN,33.8463,115.7786,4850657,2
135,Sydney,Australia,AU,-33.8667,151.2,4840600,2
136,Barcelona,Spain,ES,41.3833,2.1833,4800000,2
137,Yuncheng,China,CN,35.0267,111.007,4774508,2
138,Cape Town,South Africa,ZA,-33.9253,18.4239,4770313,2
139,Changsha,China,CN,28.228,112.939,4766296,2
140,Suqian,China,CN,33.963,118.275,4719178,2
141,Jeddah,Saudi Arabia,SA,21.5428,39.1728,4697000,2
142,Weinan,China,CN,34.5206,109.471,4688744,2
143,Berlin,Germany,DE,52.52,13.405,4679500,2
144,Chenzhou,China,CN,25.77,113.016,4667134,2
145,Jiangmen,China,CN,22.5789,113.0815,4630300,2
146,Mianyang,China,CN,31.468,104.679,4613862,2
147,Jiujiang,China,CN,29.661,115.954,4600276,2
148,Huaihua,China,CN,27.5698,110.0016,4587594,2
149,Huanglongsi,China,CN,34.795,114.345,4564900,2
150,Taizhou,China,CN,32.4567,119.9229,4512762,2
151,Belāhi,India,IN,26.4,86.25,4487379,2
152,Yibin,China,CN,28.752,104.643,4471896,2
153,Ji’an,China,CN,27.0912,114.9668,4469176,2
154,Yangzhou,China,CN,32.3944,119.4128,4459760,2
155,Kunming,China,CN,25.0464,102.7094,4422686,2
156,Changchun,China,CN,43.897,125.326,4408154,2
157,Lu’an,China,CN,31.736,116.52,4393699,2
158,Xinpu,China,CN,34.5966,119.2214,4393482,2
159,Langfang,China,CN,39.5383,116.6835,4358839,2
160,Boston,United States,US,42.3188,-71.0852,4355184,2
161,Ürümqi,China,CN,43.8225,87.6125,4335017,2
162,Suzhou,China,CN,31.3,120.6194,4330000,2
163,Guigang,China,CN,23.112,109.599,4316262,2
164,Shantou,China,CN,23.354,116.682,4312192,2
165,Jiangguanchi,China,CN,34.037,113.852,4307488,2
166,Kabul,Afghanistan,AF,34.5253,69.1783,4273156,2
167,Xiaoganzhan,China,CN,30.918,113.957,4270371,2
168,Bamako,Mali,ML,12.6458,-7.9922,4227569,2
169,Kano,Nigeria,NG,12,8.5167,4224966,2
170,Luzhou,China,CN,28.871,105.442,4218427,2
171,Hefei,China,CN,31.8206,117.2273,4216940,2
172,Hengshui,China,CN,37.739,115.669,4212933,2
173,Fortaleza,Brazil,BR,-3.7275,-38.5275,4167996,2
174,Anqing,China,CN,30.5318,117.1153,4165284,2
175,Zhangjiakou,China,CN,40.769,114.886,4118908,2
176,Zhaoqing,China,CN,23.05,112.4667,4113594,2
177,Shijiazhuang,China,CN,38.0425,114.51,4098243,2
178,Ningbo,China,CN,29.8603,121.6245,4087523,2
179,Qiqihar,China,CN,47.3549,123.9182,4067489,2
180,Phoenix,United States,US,33.5722,-112.0892,4065338,2
181,Liuzhou,China,CN,24.3278,109.4278,4041700,2
182,Chifeng,China,CN,42.255,118.8825,4035967,2
183,Xiaoxita,China,CN,30.692,111.287,4017607,2
184,Amman,Jordan,JO,31.9497,35.9328,4007526,2
185,Linfen,China,CN,36.088,111.519,3976481,2
186,Xianyang,China,CN,34.3299,108.7088,3959842,2
187,Chuzhou,China,CN,32.256,118.333,3937868,2
188,Kumasi,Ghana,GH,6.7,-1.625,3903480,2
189,Zhuzhou,China,CN,27.829,113.133,3902738,2
190,Taiyuan,China,CN,37.8704,112.5497,3875053,2
191,Qingyuan,China,CN,23.682,113.056,3874000,2
192,Meizhou,China,CN,24.289,116.122,3873239,2
193,Yiyang,China,CN,28.5549,112.356,3851564,2
194,Nanning,China,CN,22.8167,108.3275,3837978,2
195,Harbin,China,CN,45.7576,126.6409,3830000,2
196,Loudi,China,CN,27.6998,111.9944,3826996,2
197,Abuja,Nigeria,NG,9.0667,7.4833,3770000,2
198,Yokohama,Japan,JP,35.4442,139.6381,3757630,2
199,Suihua,China,CN,46.654,126.969,3756167,2
200,Binzhou,China,CN,37.383,117.971,3748474,2
201,Zaozhuang,China,CN,34.8109,117.3238,3729140,2
202,Detroit,United States,US,42.3834,-83.1024,3716929,2
203,Xiamen,China,CN,24.4796,118.0889,3707090,2
204,Mashhad,Iran,IR,36.3264,59.5433,3700000,2
205,Montréal,Canada,CA,45.5089,-73.5617,3675219,2
206,Fuzhou,China,CN,26.0743,119.2964,3671192,2
207,Wuhu,China,CN,31.3526,118.4331,3644420,2
208,Medan,Indonesia,ID,3.5894,98.6739,3632000,2
209,Yulinshi,China,CN,38.2858,109.7341,3624750,2
210,Fuzhou,China,CN,27.949,116.358,3614866,2
211,Wenzhou,China,CN,27.9938,120.6993,3604446,2
212,Changzhou,China,CN,31.811,119.974,3601079,2
213,Puyang,China,CN,35.7627,115.0292,3598740,2
214,Nanchang,China,CN,28.683,115.858,3576547,2
215,Baicheng,China,CN,23.903,106.619,3571505,2
216,Seattle,United States,US,47.6211,-122.3244,3555253,2
217,Ibadan,Nigeria,NG,7.3964,3.9167,3552000,2
218,Jiaozuo,China,CN,35.2157,113.2419,3521078,2
219,Nādampālaiyam,India,IN,11.0125,76.9714,3458045,2
220,Deyang,China,CN,31.127,104.398,3456161,2
221,Busan,"Korea, South",KR,35.18,129.075,3453198,2
222,Hechi,China,CN,24.693,108.085,3417945,2
223,Tangshan,China,CN,39.6294,118.1739,3399231,2
224,Lucknow,India,IN,26.85,80.95,3382000,2
225,San Francisco,United States,US,37.7558,-122.4449,3364862,2
226,Boankra,Ghana,GH,6.6919,-1.4051,3348000,2
227,Dubai,United Arab Emirates,AE,25.2631,55.2972,3331420,2
228,Anshan,China,CN,41.108,122.994,3325372,2
229,Guozhen,China,CN,34.3609,107.1751,3321853,2
230,Baojishi,China,CN,34.363,107.238,3321853,2
231,Qinzhou,China,CN,21.981,108.654,3302238,2
232,Guiyang,China,CN,26.647,106.63,3299724,2
233,Wuxi,China,CN,31.5667,120.2833,3245179,2
234,Kannankulam,India,IN,10.52,76.21,3243170,2
235,Caracas,Venezuela,VE,10.4806,-66.9036,3242000,2
236,Kotla Qasim Khan,Pakistan,PK,32.5833,73.75,3219375,2
237,Casablanca,Morocco,MA,33.5333,-7.5833,3215935,2
238,Hanzhong,China,CN,33.0664,107.0232,3211462,2
239,Shiyan,China,CN,32.629,110.7987,3209004,2
240,Guang’an,China,CN,30.4564,106.6326,3205476,2
241,Faisalabad,Pakistan,PK,31.4167,73.0911,3203846,2
242,Changzhi,China,CN,36.195,113.117,3180884,2
243,Tongren,China,CN,27.7316,109.1895,3168800,2
244,Bengbu,China,CN,32.917,117.389,3164467,2
245,Leshan,China,CN,29.552,103.766,3160168,2
246,Santa Cruz de la Sierra,Bolivia,BO,-17.7892,-63.1975,3151676,2
247,Neijiang,China,CN,29.5802,105.058,3140678,2
248,Zhenjiang,China,CN,32.188,119.424,3113384,2
249,Qinhuangdao,China,CN,39.8882,119.5202,3107400,2
250,Bursa,Turkey,TR,40.1833,29.05,3101833,2
251,Tashkent,Uzbekistan,UZ,41.3111,69.2797,3095498,2
252,Guayaquil,Ecuador,EC,-2.19,-79.8875,3094420,2
253,Jaipur,India,IN,26.9,75.8,3073350,2
254,Lanzhou,China,CN,36.0606,103.8268,3067141,2
255,Ouagadougou,Burkina Faso,BF,12.3686,-1.5275,3063271,2
256,Athens,Greece,GR,37.9842,23.7281,3059764,2
257,San Diego,United States,US,32.8313,-117.1222,3057778,2
258,Guatemala City,Guatemala,GT,14.6417,-90.5133,3014000,2
259,Kuwait City,Kuwait,KW,29.3697,47.9783,2989000,2
260,Qincheng,China,CN,34.5815,105.7248,2984659,2
261,İzmir,Turkey,TR,38.42,27.14,2965900,2
262,Quezon City,Philippines,PH,14.65,121.0475,2960048,2
263,Kyiv,Ukraine,UA,50.45,30.5233,2952301,2
264,Kottārasshēri,India,IN,10.775,76.651,2952254,2
265,Meishan,China,CN,30.0771,103.8484,2950545,2
266,Incheon,"Korea, South",KR,37.4833,126.6333,2936117,2
267,Ningde,China,CN,26.6662,119.5477,2910000,2
268,Zhongshan,China,CN,22.517,113.3925,2909633,2
269,Minneapolis,United States,US,44.9635,-93.2678,2906807,2
270,Tampa,United States,US,27.9945,-82.4447,2906035,2
271,Putian,China,CN,25.4526,119.0078,2900000,2
272,Mbuji-Mayi,Congo (Kinshasa),CD,-6.15,23.6,2892000,2
273,Tongliao,China,CN,43.654,122.243,2873168,2
274,Chaoyang,China,CN,41.571,120.453,2872857,2
275,Hohhot,China,CN,40.842,111.749,2866615,2
276,Pyongyang,"Korea, North",KP,39.0167,125.7475,2863000,2
277,Shaoguan,China,CN,24.811,113.597,2855131,2
278,Taichung,Taiwan,TW,24.1439,120.6794,2850285,2
279,Cali,Colombia,CO,3.4206,-76.5222,2838333,2
280,Heyuan,China,CN,23.7443,114.7002,2837686,2
281,Wuzhou,China,CN,23.4767,111.279,2820977,2
282,Pretoria,South Africa,ZA,-25.7461,28.1881,2818100,2
283,Suining,China,CN,30.533,105.593,2814196,2
284,Omdurman,Sudan,SD,15.6835,32.4629,2805396,2
285,Weihai,China,CN,37.5133,122.1205,2804771,2
286,Rizhao,China,CN,35.417,119.527,2801013,2
287,Malang,Indonesia,ID,-7.98,112.62,2795209,2
288,Stuttgart,Germany,DE,48.7775,9.18,2787724,2
289,Daqing,China,CN,46.589,125.104,2781562,2
290,Rome,Italy,IT,41.8931,12.4828,2748109,2
291,Kaohsiung,Taiwan,TW,22.615,120.2975,2737660,2
292,Brooklyn,United States,US,40.6501,-73.9496,2736074,2
293,Xiangtan,China,CN,27.8313,112.9454,2726181,2
294,Bazhou,China,CN,31.868,106.748,2712894,2
295,Handan,China,CN,36.601,114.487,2708015,2
296,Brisbane,Australia,AU,-27.4678,153.0281,2706966,2
297,Jinzhou,China,CN,41.129,121.148,2703853,2
298,Denver,United States,US,39.762,-104.8758,2691349,2
299,Xinzhou,China,CN,38.416,112.734,2689668,2
300,Nanping,China,CN,26.6418,118.1774,2680645,2
301,Gāzipura,Bangladesh,BD,23.9234,90.3959,2674697,2
302,Shanwei,China,CN,22.7872,115.3756,2672819,2
303,Maracaibo,Venezuela,VE,10.6333,-71.6333,2658355,2
304,Chaozhou,China,CN,23.658,116.622,2656600,2
305,Baotou,China,CN,40.6213,109.9532,2650364,2
306,Longyan,China,CN,25.076,117.017,2640000,2
307,Weifang,China,CN,36.708,119.162,2636154,2
308,Huai’an,China,CN,33.551,119.113,2632788,2
309,Zibo,China,CN,36.8138,118.055,2631647,2
310,Attadappa,India,IN,11.8689,75.3555,2615266,2
311,Munich,Germany,DE,48.1375,11.575,2606021,2
312,Gulou,China,CN,26.0865,119.298,2606000,2
313,Birmingham,United Kingdom,GB,52.48,-1.9025,2590363,2
314,Valencia,Venezuela,VE,10.1833,-68,2585202,2
315,Damascus,Syria,SY,33.502,36.2981,2584771,2
316,Chattogram,Bangladesh,BD,22.335,91.8325,2581643,2
317,Brazzaville,Congo (Brazzaville),CG,-4.2667,15.2667,2557100,2
318,Yangjiang,China,CN,21.857,111.983,2555600,2
319,Sanaa,Yemen,YE,15.3483,44.2064,2545000,2
320,Barmhān Kalān,India,IN,19.1972,72.9722,2537000,2
321,Medellín,Colombia,CO,6.2308,-75.5906,2529403,2
322,Dingxi,China,CN,35.608,104.592,2524097,2
323,Shaoxing,China,CN,30.0511,120.5833,2521964,2
324,Yantai,China,CN,37.4646,121.4478,2511053,2
325,Huizhou,China,CN,23.112,114.416,2509243,2
326,Xuanzhou,China,CN,30.939,118.759,2500063,2
327,Mirzāpur,India,IN,25.146,82.569,2496970,2
328,Hamburg,Germany,DE,53.55,10,2496600,2
329,Taipei,Taiwan,TW,25.0375,121.5625,2494813,2
330,Ankang,China,CN,32.6854,109.029,2493436,2
331,Zigong,China,CN,29.339,104.779,2489256,2
332,Sanming,China,CN,26.2634,117.6389,2486450,2
333,Toluca,Mexico,MX,19.2925,-99.6569,2476689,2
334,Huangshi,China,CN,30.2011,115.039,2469079,2
335,Yaoundé,Cameroon,CM,3.8667,11.5167,2440462,2
336,Zhuhai,China,CN,22.2742,113.5719,2439585,2
337,Huludao,China,CN,40.711,120.837,2434194,2
338,Baoshan,China,CN,25.112,99.161,2431211,2
339,Mecca,Saudi Arabia,SA,21.4225,39.8261,2427924,2
340,Vancouver,Canada,CA,49.25,-123.1,2426160,2
341,Lianshan,China,CN,40.7523,120.828,2426000,2
342,Beirut,Lebanon,LB,33.8981,35.5058,2421354,2
343,Salvador,Brazil,BR,-12.9831,-38.4928,2417678,2
344,Bucharest,Romania,RO,44.4325,26.1039,2412530,2
345,Longba,China,CN,33.3702,104.9603,2407272,2
346,Nāgpur,India,IN,21.1497,79.0806,2405665,2
347,Queens,United States,US,40.7498,-73.7976,2405464,2
348,Tieling,China,CN,42.2237,123.726,2388294,2
349,Yunfu,China,CN,22.9152,112.0445,2383350,2
350,Bekasi,Indonesia,ID,-6.2333,107,2381053,2
351,Daegu,"Korea, South",KR,35.8717,128.6017,2376044,2
352,Ghāziābād,India,IN,28.67,77.42,2375820,2
353,Luoyang,China,CN,34.6197,112.4539,2372571,2
354,Luohe,China,CN,33.5804,114.0166,2367490,2
355,Algiers,Algeria,DZ,36.7325,3.0872,2364230,2
356,Anshun,China,CN,26.2531,105.9476,2353100,2
357,Huainan,China,CN,32.6314,117.0194,2333896,2
358,Depok,Indonesia,ID,-6.394,106.8225,2330333,2
359,Konya,Turkey,TR,37.8667,32.4833,2320241,2
360,Haiphong,Vietnam,VN,20.8651,106.6838,2310280,2
361,Yanjiang,China,CN,30.129,104.627,2308631,2
362,Guangyuan,China,CN,32.436,105.844,2305657,2
363,Baku,Azerbaijan,AZ,40.3667,49.8352,2300500,2
364,Yingkou,China,CN,40.625,122.219,2296540,2
365,Mudanjiang,China,CN,44.5514,129.6329,2290208,2
366,Riverside,United States,US,33.9381,-117.3949,2288508,2
367,Fukuoka,Japan,JP,33.59,130.4017,2286000,2
368,Nantong,China,CN,31.981,120.894,2261382,2
369,Lincang,China,CN,23.884,100.089,2257991,2
370,Las Vegas,United States,US,36.2333,-115.2654,2256509,2
371,Haikou,China,CN,20.0186,110.3488,2250000,2
372,Yuxi,China,CN,24.347,102.527,2249502,2
373,Tangerang,Indonesia,ID,-6.1703,106.6403,2237006,2
374,Supaul,India,IN,26.126,86.605,2229076,2
375,Almaty,Kazakhstan,KZ,43.24,76.915,2228675,2
376,Vienna,Austria,AT,48.2083,16.3725,2223236,2
377,Eşfahān,Iran,IR,32.6653,51.6703,2219343,2
378,Xining,China,CN,36.6224,101.7804,2208708,2
379,Jincheng,China,CN,35.491,112.852,2194545,2
380,Baltimore,United States,US,39.3051,-76.6144,2189589,2
381,Dandong,China,CN,40.1167,124.3833,2188436,2
382,Yan’an,China,CN,36.65,109.494,2187009,2
383,Qinbaling,China,CN,35.7091,107.6436,2179716,2
384,Gaoping,China,CN,30.7824,106.1281,2174000,2
385,Awka,Nigeria,NG,6.2069,7.0678,2171900,2
386,Taizhou,China,CN,28.6557,121.4208,2162461,2
387,Ma’anshan,China,CN,31.669,118.507,2159930,2
388,Jiamusi,China,CN,46.8,130.319,2156505,2
389,Perth,Australia,AU,-31.9558,115.8597,2141834,2
390,Gaziantep,Turkey,TR,37.0628,37.3792,2130432,2
391,Phnom Penh,Cambodia,KH,11.5696,104.921,2129371,2
392,St. Louis,United States,US,38.6359,-90.2451,2127843,2
393,Mogadishu,Somalia,SO,2.0392,45.3419,2120000,2
394,Lishui,China,CN,28.468,119.923,2116957,2
395,Kowloon,Hong Kong,HK,22.3167,114.1833,2108419,2
396,Córdoba,Argentina,AR,-31.4167,-64.1833,2106734,2
397,Zamboanga City,Philippines,PH,6.9042,122.0761,2100000,2
398,Rawalpindi,Pakistan,PK,33.6,73.0333,2098231,2
399,Havana,Cuba,CU,23.1367,-82.3589,2089532,2
400,Chongzuo,China,CN,22.377,107.365,2088692,2
401,Portland,United States,US,45.5371,-122.65,2084045,2
402,Laibin,China,CN,23.7501,109.2212,2074611,2
403,San Antonio,United States,US,29.4632,-98.5238,2069843,2
404,Vadodara,India,IN,22.3,73.2,2065771,2
405,Qingyang,China,CN,24.7816,118.5517,2061600,2
406,Rājkot,India,IN,22.3,70.7833,2043000,2
407,Shangzhou,China,CN,33.8734,109.9186,2041231,2
408,Vishākhapatnam,India,IN,17.7042,83.2978,2035922,2
409,Shengli,China,CN,37.434,118.6746,2035338,2
410,Sanmenxia,China,CN,34.7732,111.2004,2034872,2
411,Warsaw,Poland,PL,52.23,21.0111,2028000,2
412,Gujranwala,Pakistan,PK,32.1567,74.19,2027001,2
413,Hezhou,China,CN,24.4042,111.5672,2007858,2
414,Aleppo,Syria,SY,36.2319,37.1681,2003671,2
415,Tijuana,Mexico,MX,32.525,-117.0333,2002000,2
416,Puning,China,CN,23.298,116.166,1998619,2
417,Indore,India,IN,22.7167,75.8472,1994397,2
418,Minsk,Belarus,BY,53.9006,27.5586,1992862,2
419,Karaj,Iran,IR,35.8292,50.9675,1973470,2
420,Kananga,Congo (Kinshasa),CD,-5.897,22.4488,1971704,2
421,Huaibei,China,CN,33.956,116.798,1970265,2
422,Peshawar,Pakistan,PK,34.0144,71.5675,1970042,2
423,Sacramento,United States,US,38.5677,-121.4685,1962998,2
424,Sapporo,Japan,JP,43.0619,141.3544,1959313,2
425,Tilburg,Netherlands,NL,51.5572,5.0911,1944588,2
426,Austin,United States,US,30.3005,-97.7522,1915031,2
427,Orlando,United States,US,28.4773,-81.337,1913597,2
428,Davao,Philippines,PH,7.07,125.6,1910167,2
429,Songjiang,China,CN,31.0058,121.2333,1909713,2
430,Yinchuan,China,CN,38.485,106.225,1901793,2
431,Abhepur,India,IN,39.41,116.38,1895686,2
432,Thāne,India,IN,19.1972,72.9722,1886941,2
433,Multan,Pakistan,PK,30.1978,71.4697,1871843,2
434,Port Harcourt,Nigeria,NG,4.8242,7.0336,1865000,2
435,Fushun,China,CN,41.881,123.957,1861372,2
436,Tainan,Taiwan,TW,22.9833,120.1833,1856642,2
437,Pingliang,China,CN,35.5424,106.6649,1848607,2
438,Siping,China,CN,43.1668,124.3506,1814733,2
439,San Juan,Puerto Rico,PR,18.3985,-66.061,1809800,2
440,Pingxiang,China,CN,27.659,113.887,1804805,2
441,Bhopāl,India,IN,23.2599,77.4126,1798218,2
442,Mosul,Iraq,IQ,36.3667,43.1167,1792000,2
443,Diyarbakır,Turkey,TR,37.91,40.24,1791373,2
444,Lubumbashi,Congo (Kinshasa),CD,-11.6647,27.4794,1786397,2
445,Benin City,Nigeria,NG,6.3333,5.6222,1780000,2
446,Curitiba,Brazil,BR,-25.4297,-49.2719,1773718,2
447,San Jose,United States,US,37.3012,-121.848,1771563,2
448,Shuyangzha,China,CN,34.1299,118.7734,1770000,2
449,Adana,Turkey,TR,37,35.3213,1765981,2
450,Quito,Ecuador,EC,-0.22,-78.5125,1763275,2
451,Āgra,India,IN,27.18,78.02,1760285,2
452,Peyanvilai,India,IN,8.9,77.9833,1750176,2
453,Lusaka,Zambia,ZM,-15.4167,28.2833,1747152,2
454,Indianapolis,United States,US,39.7771,-86.1458,1740984,2
455,Hyderabad City,Pakistan,PK,25.3792,68.3683,1732693,2
456,Pimpri-Chinchwad,India,IN,18.6186,73.8037,1729320,2
457,Maracay,Venezuela,VE,10.2469,-67.5961,1723236,2
458,Masqaţ,Oman,OM,23.614,58.5911,1720000,2
459,Montevideo,Uruguay,UY,-34.9056,-56.1842,1719453,2
460,Pittsburgh,United States,US,40.4397,-79.9763,1712828,2
461,Cincinnati,United States,US,39.1413,-84.506,1704916,2
462,Manhattan,United States,US,40.7834,-73.9662,1694263,2
463,Kansas City,United States,US,39.1238,-94.5541,1686807,2
464,Budapest,Hungary,HU,47.4983,19.0408,1686222,2
465,Patna,India,IN,25.594,85.1376,1684222,2
466,Kampala,Uganda,UG,0.3136,32.5811,1680600,2
467,Beihai,China,CN,21.481,109.12,1680000,2
468,Sanzhou,China,CN,30.82,108.4,1680000,2
469,Cleveland,United States,US,41.4764,-81.6805,1679247,2
470,Conakry,Guinea,GN,9.5092,-13.7122,1667864,2
471,Ximeicun,China,CN,24.9612,118.3849,1663542,2
472,Caloocan City,Philippines,PH,14.65,120.97,1661584,2
473,Ecatepec,Mexico,MX,19.6097,-99.06,1655015,2
474,Yushan,China,CN,31.322,120.985,1652159,2
475,Fuxin,China,CN,42.022,121.67,1647280,2
476,Novosibirsk,Russia,RU,55.05,82.95,1633851,2
477,Bilāspur,India,IN,22.09,82.15,1625502,2
478,Semarang,Indonesia,ID,-6.99,110.4225,1621384,2
479,Jingdezhen,China,CN,29.2917,117.1986,1618979,2
480,Ludhiāna,India,IN,30.91,75.85,1618879,2
481,Liaoyang,China,CN,41.279,123.176,1604580,2
482,Jiangyin,China,CN,31.839,120.295,1595138,2
483,Valencia,Spain,ES,39.47,-0.3764,1595000,2
484,Shuozhou,China,CN,39.3317,112.4329,1593444,2
485,León de los Aldama,Mexico,MX,21.1167,-101.6833,1579803,2
486,Columbus,United States,US,39.9862,-82.9855,1578153,2
487,Puebla,Mexico,MX,19.0333,-98.1833,1576259,2
488,Biên Hòa,Vietnam,VN,10.95,106.8167,1575000,2
489,Chengtangcun,China,CN,35.0833,117.15,1574648,2
490,Yopougon,Côte d’Ivoire,CI,5.3748,-4.0867,1571065,2
491,Hebi,China,CN,35.748,114.297,1565973,2
492,Shīrāz,Iran,IR,29.61,52.5425,1565572,2
493,Dushanbe,Tajikistan,TJ,38.5367,68.78,1564700,2
494,Madurai,India,IN,9.9252,78.1198,1561129,2
495,Huzhou,China,CN,30.8925,120.0875,1558826,2
496,Harare,Zimbabwe,ZW,-17.8292,31.0522,1558823,2
497,Tabrīz,Iran,IR,38.0817,46.2992,1558693,2
498,Jamshedpur,India,IN,22.7925,86.1842,1558000,2
499,Baicheng,China,CN,45.62,122.838,1551378,2
500,San José,Costa Rica,CR,9.9325,-84.08,1543000,2
501,Shaoyang,China,CN,32.912,119.8526,1542600,2
502,San Salvador,El Salvador,SV,13.6989,-89.1914,1538525,2
503,Palembang,Indonesia,ID,-2.9861,104.7556,1535952,2
504,Kawasaki,Japan,JP,35.5167,139.7,1531646,2
505,Kōbe,Japan,JP,34.69,135.1956,1521707,2
506,Jiaxing,China,CN,30.747,120.756,1518654,2
507,Zhangjiajie,China,CN,29.117,110.479,1517027,2
508,Baiyin,China,CN,36.5451,104.1389,1512110,2
509,Guiping,China,CN,23.4,110.0833,1511011,2
510,Changshu,China,CN,31.656,120.753,1510100,2
511,Jixi,China,CN,45.295,130.969,1502060,2
512,Xushan,China,CN,30.1667,121.2333,1502000,2
513,Lomé,Togo,TG,6.1308,1.2153,1500000,2
514,Niamey,Niger,NE,13.515,2.1175,1496260,2
515,Gwangju,"Korea, South",KR,35.1653,126.8486,1490092,2
516,Recife,Brazil,BR,-8.0539,-34.8808,1488920,2
517,Nāsik,India,IN,19.9975,73.7898,1486053,2
518,Abu Dhabi,United Arab Emirates,AE,24.4667,54.3667,1483000,2
519,Onitsha,Nigeria,NG,6.1667,6.7833,1483000,2
520,Amsterdam,Netherlands,NL,52.3728,4.8936,1477213,2
521,Vijayavāda,India,IN,16.5193,80.6305,1476931,2
522,Zapopan,Mexico,MX,20.7167,-103.4,1476491,2
523,Daejeon,"Korea, South",KR,36.35,127.385,1475221,2
524,Bronx,United States,US,40.8501,-73.8662,1472654,2
525,Auckland,New Zealand,NZ,-36.8492,174.7653,1470100,2
526,Yekaterinburg,Russia,RU,56.8356,60.6128,1468833,2
527,Wuwei,China,CN,37.929,102.638,1464955,2
528,Jinhua,China,CN,29.079,119.647,1463990,2
529,Kyōto,Japan,JP,35.0117,135.7683,1463723,2
530,Pizhou,China,CN,34.398,117.89,1458038,2
531,Yangshe,China,CN,31.8767,120.556,1447600,2
532,Dakar,Senegal,SN,14.6726,-17.432,1438725,2
533,Charlotte,United States,US,35.2083,-80.8303,1436613,2
534,Yucheng,China,CN,30.01,103.0415,1434603,2
535,Kayseri,Turkey,TR,38.7225,35.4875,1434357,2
536,Virginia Beach,United States,US,36.7335,-76.0435,1431821,2
537,Rui’an,China,CN,27.7833,120.625,1424667,2
538,Muscat,Oman,OM,23.6139,58.5922,1421409,2
539,Kharkiv,Ukraine,UA,49.9925,36.2311,1421125,2
540,Pointe-Noire,Congo (Brazzaville),CG,-4.7975,11.8503,1420612,2
541,Medina,Saudi Arabia,SA,24.47,39.61,1411599,2
542,Sangereng,Indonesia,ID,-6.2889,106.7181,1404785,2
543,Farīdābād,India,IN,28.4211,77.3078,1404653,2
544,Sofia,Bulgaria,BG,42.6979,23.3217,1404116,2
545,Ulaanbaatar,Mongolia,MN,47.9214,106.9055,1396288,2
546,Adelaide,Australia,AU,-34.9275,138.6,1387290,2
547,Prague,Czechia,CZ,50.0875,14.4214,1384732,2
548,Wenling,China,CN,28.3667,121.3667,1366794,2
549,Copenhagen,Denmark,DK,55.6805,12.5615,1366301,2
550,Najafgarh,India,IN,28.6125,76.9847,1365152,2
551,Lianjiang,China,CN,21.7333,110.2833,1363470,2
552,Helsinki,Finland,FI,60.1708,24.9375,1360075,2
553,Samsun,Turkey,TR,41.2903,36.3336,1356079,2
554,Milan,Italy,IT,45.4669,9.19,1354196,2
555,Antalya,Turkey,TR,36.8874,30.7075,1344000,2
556,Santiago,Dominican Republic,DO,19.4572,-70.6889,1343423,2
557,Chizhou,China,CN,30.6654,117.4916,1342764,2
558,Makassar,Indonesia,ID,-5.1331,119.4136,1338663,2
559,Porto Alegre,Brazil,BR,-30.0328,-51.23,1332845,2
560,Huangshan,China,CN,29.7149,118.3376,1330565,2
561,Gaozhou,China,CN,21.9244,110.8422,1328657,2
562,Barranquilla,Colombia,CO,10.9833,-74.8019,1326588,2
563,Al Başrah,Iraq,IQ,30.515,47.81,1326564,2
564,Benxi,China,CN,41.3039,123.7649,1326018,2
565,Saitama,Japan,JP,35.8614,139.6456,1325843,2
566,Ahvāz,Iran,IR,31.3047,48.6783,1325000,2
567,Guarulhos,Brazil,BR,-23.4667,-46.5333,1324781,2
568,Leizhou,China,CN,20.9143,110.0967,1321091,2
569,Juárez,Mexico,MX,31.745,-106.485,1321004,2
570,Mandalay,Burma,MM,21.9831,96.0844,1319452,2
571,Yangquan,China,CN,37.8571,113.5804,1318505,2
572,Fuqing,China,CN,25.7167,119.3833,1316000,2
573,Xintai,China,CN,35.909,117.768,1315942,2
574,Wusong,China,CN,30.945,117.811,1311726,2
575,Tongling,China,CN,30.9456,117.8114,1311726,2
576,Calgary,Canada,CA,51.05,-114.0667,1306784,2
577,Meerut,India,IN,28.98,77.71,1305429,2
578,Jacksonville,United States,US,30.3322,-81.6749,1303156,2
579,Kuaidamao,China,CN,41.7283,125.9397,1302778,2
580,Huazhou,China,CN,21.664,110.6396,1291668,2
581,Milwaukee,United States,US,43.0642,-87.9675,1290221,2
582,Wuzhong,China,CN,37.9978,106.1986,1284000,2
583,Belém,Brazil,BR,-1.4558,-48.5039,1280614,2
584,Cacuaco,Angola,AO,-8.8053,13.2444,1279488,2
585,Rosario,Argentina,AR,-32.9575,-60.6394,1276000,2
586,Tangier,Morocco,MA,35.7767,-5.8039,1275428,2
587,Antananarivo,Madagascar,MG,-18.91,47.525,1275207,2
588,Canagatan,Philippines,PH,18,121.8,1273219,2
589,Soweto,South Africa,ZA,-26.2678,27.8585,1271628,2
590,Providence,United States,US,41.823,-71.4187,1270529,2
591,Xiantao,China,CN,30.328,113.443,1268715,2
592,Jabalpur,India,IN,23.1667,79.9333,1267564,2
593,Huaiyin,China,CN,33.5819,119.028,1264000,2
594,Yutan,China,CN,28.278,112.552,1263332,2
595,Kazan,Russia,RU,55.7964,49.1089,1259173,2
596,Bagam,Indonesia,ID,1.13,104.0531,1256610,2
597,Dayan,China,CN,26.8552,100.2259,1253878,2
598,Comayagüela,Honduras,HN,14.098,-87.21,1250000,2
599,Brussels,Belgium,BE,50.8467,4.3525,1249597,2
600,Laiwu,China,CN,36.1833,117.6667,1248636,2
601,Huazhou,China,CN,32.688,112.087,1247807,2
602,Sharjah,United Arab Emirates,AE,25.3575,55.3908,1247749,2
603,Kalyān,India,IN,19.24,73.13,1246381,2
604,Rucheng,China,CN,32.246,120.591,1241700,2
605,Barquisimeto,Venezuela,VE,10.0636,-69.3347,1240714,2
606,Yongcheng,China,CN,33.9299,116.45,1240382,2
607,Sumedang,Indonesia,ID,-6.84,107.9208,1240000,2
608,Cần Thơ,Vietnam,VN,10.0333,105.7833,1237300,2
609,Suwon,"Korea, South",KR,37.2667,127.0167,1234300,2
610,Yiwu,China,CN,29.3069,120.0753,1234015,2
611,Vasai-Virar,India,IN,19.47,72.8,1221233,2
612,Campinas,Brazil,BR,-22.9009,-47.0573,1213792,2
613,Dadukou,China,CN,26.5824,101.7184,1212203,2
614,Lingcheng,China,CN,22.708,110.354,1211637,2
615,Shuangyashan,China,CN,46.6762,131.1416,1208803,2
616,Nizhniy Novgorod,Russia,RU,56.3269,44.0075,1204985,2
617,Pānīpat,India,IN,29.3875,76.97,1202811,2
618,Qom,Iran,IR,34.64,50.8764,1201158,2
619,Mombasa,Kenya,KE,-4.05,39.6667,1200000,2
620,Hargeysa,Somalia,SO,9.56,44.065,1200000,2
621,Baidoa,Somalia,SO,3.1167,43.65,1200000,2
622,Vārānasi,India,IN,25.3189,83.0128,1198491,2
623,Hiroshima,Japan,JP,34.3914,132.4519,1198021,2
624,Chiang Mai,Thailand,TH,18.7953,98.9986,1198000,2
625,Belgrade,Serbia,RS,44.8178,20.4569,1197714,2
626,Maiduguri,Nigeria,NG,11.8372,13.1542,1197497,2
627,Kalleli,India,IN,9.2807,76.8697,1197412,2
628,Batam Centre,Indonesia,ID,1.1272,104.0556,1196396,2
629,Pingdu,China,CN,36.7769,119.9884,1191348,2
630,Rongcheng,China,CN,26.218,104.103,1189813,2
631,Mbandaka,Congo (Kinshasa),CD,0.0478,18.2558,1187837,2
632,Xinyu,China,CN,27.8186,114.9167,1186700,2
633,Doha,Qatar,QA,25.2867,51.5333,1186023,2
634,Shymkent,Kazakhstan,KZ,42.3167,69.5958,1184113,2
635,Tripoli,Libya,LY,32.8872,13.1914,1183000,2
636,Srīnagar,India,IN,34.09,74.79,1180570,2
637,Nashville,United States,US,36.1715,-86.7842,1178679,2
638,Chelyabinsk,Russia,RU,55.1547,61.3758,1177058,2
639,Aurangābād,India,IN,19.88,75.32,1175116,2
640,Cilacap,Indonesia,ID,-7.7167,109.017,1174964,2
641,Xinhualu,China,CN,34.3964,113.7402,1172237,2
642,Salt Lake City,United States,US,40.7776,-111.9311,1169033,2
643,Guankou,China,CN,28.1637,113.6433,1168056,2
644,Bandar Lampung,Indonesia,ID,-5.45,105.2667,1166761,2
645,Dhanbād,India,IN,23.7998,86.4305,1162472,2
646,Nay Pyi Taw,Burma,MM,19.7475,96.115,1160242,2
647,Aba,Nigeria,NG,5.1167,7.3667,1160000,2
648,Jingling,China,CN,30.664,113.167,1158640,2
649,Zhuji,China,CN,29.7167,120.2333,1157938,2
650,Tegucigalpa,Honduras,HN,14.1057,-87.204,1157509,2
651,Kigali,Rwanda,RW,-1.9536,30.0606,1156663,2
652,Samara,Russia,RU,53.2028,50.1408,1156659,2
653,Yingtan,China,CN,28.2721,117.0395,1154223,2
654,Edmonton,Canada,CA,53.5344,-113.4903,1151635,2
655,Raleigh,United States,US,35.8324,-78.6429,1150010,2
656,Bishkek,Kyrgyzstan,KG,42.8667,74.5667,1145044,2
657,Bujumbura,Burundi,BI,-3.3833,29.3667,1143202,2
658,Guyuan,China,CN,36.01,106.257,1142142,2
659,Leiyang,China,CN,26.4223,112.8598,1140675,2
660,Krasnodar,Russia,RU,45.0333,38.9667,1138654,2
661,Rostov,Russia,RU,47.2225,39.71,1135968,2
662,Maputo,Mozambique,MZ,-25.9153,32.5764,1133200,2
663,Bukavu,Congo (Kinshasa),CD,-2.5061,28.8608,1133000,2
664,Amritsar,India,IN,31.64,74.86,1132383,2
665,Shagamu,Nigeria,NG,6.8333,3.65,1132270,2
666,Alīgarh,India,IN,27.88,78.08,1131160,2
667,Zhangye,China,CN,38.9248,100.4499,1131016,2
668,Ufa,Russia,RU,54.7261,55.9475,1128787,2
669,Santo Domingo,Dominican Republic,DO,18.4764,-69.8933,1128678,2
670,Ulsan,"Korea, South",KR,35.55,129.3167,1127553,2
671,Rongcheng,China,CN,29.8402,112.9048,1120822,2
672,Tbilisi,Georgia,GE,41.7225,44.7925,1118035,2
673,Guwāhāti,India,IN,26.1722,91.7458,1116267,2
674,Fès,Morocco,MA,34.0433,-5.0033,1112072,2
675,Yingchuan,China,CN,34.142,113.489,1109782,2
676,Ninh Bình,Vietnam,VN,20.25,105.8333,1106913,2
677,Yerevan,Armenia,AM,40.1814,44.5144,1106300,2
678,Mwanza,Tanzania,TZ,-2.5167,32.9,1104521,2
679,Omsk,Russia,RU,54.9833,73.3667,1104485,2
680,Mexicali,Mexico,MX,32.6633,-115.4678,1102342,2
681,Sevilla,Spain,ES,37.39,-5.99,1100000,2
682,Ikare,Nigeria,NG,7.5167,5.75,1099931,2
683,Dingzhou,China,CN,38.516,114.99,1095986,2
684,Tamale,Ghana,GH,9.4075,-0.8533,1095808,2
685,Yuyao,China,CN,30.05,121.15,1095000,2
686,Goiânia,Brazil,BR,-16.6806,-49.2564,1093007,2
687,Krasnoyarsk,Russia,RU,56.0089,92.8719,1092851,2
688,Cologne,Germany,DE,50.9364,6.9528,1087353,2
689,Ubungo,Tanzania,TZ,-6.7889,39.2056,1086912,2
690,Yicheng,China,CN,31.36,119.815,1082929,2
691,Richmond,United States,US,37.5295,-77.4756,1081248,2
692,Kisangani,Congo (Kinshasa),CD,0.5167,25.2,1081000,2
693,Ezhou,China,CN,30.3914,114.8949,1079353,2
694,Astana,Kazakhstan,KZ,51.1472,71.4222,1078362,2
695,Zhufeng,China,CN,36,119.4167,1078178,2
696,Nezahualcóyotl,Mexico,MX,19.4081,-99.0186,1077208,2
697,Nouakchott,Mauritania,MR,18.0858,-15.9785,1077169,2
698,Hāora,India,IN,22.58,88.3294,1077075,2
699,Tongjin,"Korea, South",KR,37.2333,127.2,1076369,2
700,Rānchi,India,IN,23.36,85.33,1073440,2
701,Ciudad Nezahualcóyotl,Mexico,MX,19.4006,-99.0148,1072676,2
702,Gwalior,India,IN,26.2125,78.1775,1069276,2
703,Ottawa,Canada,CA,45.4247,-75.695,1068821,2
704,Haicheng,China,CN,40.8824,122.6852,1067905,2
705,Jianguang,China,CN,28.1958,115.7833,1065641,2
706,Goyang,"Korea, South",KR,37.65,126.8,1061929,2
707,Sendai,Japan,JP,38.2682,140.8694,1061177,2
708,Xibeijie,China,CN,39.7334,98.4943,1055706,2
709,Chandīgarh,India,IN,30.75,76.78,1055450,2
710,Voronezh,Russia,RU,51.6717,39.2106,1051995,2
711,Managua,Nicaragua,NI,12.1364,-86.2514,1051236,2
712,Zhongwei,China,CN,37.5002,105.1968,1046000,2
713,Jiancheng,China,CN,30.38,104.53,1045900,2
714,Mersin,Turkey,TR,36.8,34.6333,1040507,2
715,Shouguang,China,CN,36.857,118.791,1039205,2
716,Liangshi,China,CN,27.26,111.7442,1038416,2
717,São Luís,Brazil,BR,-2.53,-44.3028,1037775,2
718,Jodhpur,India,IN,26.28,73.02,1033918,2
719,Memphis,United States,US,35.1087,-89.9663,1033394,2
720,Matola,Mozambique,MZ,-25.9667,32.4667,1032197,2
721,Ogbomoso,Nigeria,NG,8.1333,4.25,1032000,2
722,Sanya,China,CN,18.2533,109.5036,1031396,2
723,Rangapukur,Bangladesh,BD,25.5206,89.2147,1031388,2
724,Ashgabat,Turkmenistan,TM,37.9375,58.38,1030063,2
725,Enugu,Nigeria,NG,6.5,7.5,1029400,2
726,Linhai,China,CN,28.85,121.1167,1028813,2
727,Perm,Russia,RU,58,56.3167,1026908,2
728,Shubrā al Khaymah,Egypt,EG,30.1286,31.2422,1025569,2
729,Monrovia,Liberia,LR,6.3133,-10.8014,1021762,2
730,Islamabad,Pakistan,PK,33.6931,73.0639,1014825,2
731,Xinyi,China,CN,22.3549,110.9468,1013900,2
732,Thủ Đức,Vietnam,VN,10.8266,106.7609,1013795,2
733,Āqchah,Afghanistan,AF,36.9114,66.1858,1012000,2
734,Odesa,Ukraine,UA,46.492,30.7081,1010537,2
735,Raipur,India,IN,21.2444,81.6306,1010087,2
736,Namangan,Uzbekistan,UZ,41.0011,71.6683,1010000,2
737,Changwon,"Korea, South",KR,35.2708,128.6631,1009998,2
738,Arequipa,Peru,PE,-16.3989,-71.5369,1008290,2
739,Tshikapa,Congo (Kinshasa),CD,-6.4167,20.8,1006387,2
740,Volgograd,Russia,RU,48.7086,44.5147,1004763,2
741,Morelia,Mexico,MX,19.7683,-101.1894,1002461,2
742,Kota,India,IN,25.18,75.83,1001694,2
743,Quetta,Pakistan,PK,30.1833,67,1001205,2
744,Oklahoma City,United States,US,35.4676,-97.5136,1000207,2
745,Domaa-Ahenkro,Ghana,GH,7.2739,-2.8735,1000000,2
746,Bareilly,India,IN,28.3667,79.4306,1000000,2
747,Liaoyuan,China,CN,42.888,125.1447,996903,3
748,Stockholm,Sweden,SE,59.3275,18.0547,995574,3
749,Bordeaux,France,FR,44.84,-0.58,994920,3
750,Taixing,China,CN,32.159,120.029,990200,3
751,Lilongwe,Malawi,MW,-13.9669,33.7873,989318,3
752,Port-au-Prince,Haiti,HT,18.5425,-72.3386,987310,3
753,Esenyurt,Turkey,TR,41.0342,28.68,983571,3
754,Pekanbaru,Indonesia,ID,0.5092,101.4453,983356,3
755,Bogor,Indonesia,ID,-6.5966,106.7972,982469,3
756,Ciudad Guayana,Venezuela,VE,8.3667,-62.65,978202,3
757,Chiba,Japan,JP,35.6073,140.1064,975014,3
758,Kirkuk,Iraq,IQ,35.4667,44.4,975000,3
759,Shuizhai,China,CN,33.4658,114.8753,973197,3
760,Qianxi,China,CN,27.0087,106.0323,970700,3
761,Hartford,United States,US,41.7661,-72.6834,969171,3
762,Dnipro,Ukraine,UA,48.4675,35.04,968502,3
763,Baishan,China,CN,41.944,126.4147,968373,3
764,Nārāyanganj,Bangladesh,BD,23.6167,90.5,967951,3
765,Gqeberha,South Africa,ZA,-33.9581,25.6,967677,3
766,Huilong,China,CN,31.87,121.703,967313,3
767,Málaga,Spain,ES,36.7194,-4.42,967250,3
768,Marrakech,Morocco,MA,31.63,-8.0089,966987,3
769,Louisville,United States,US,38.1663,-85.6485,965005,3
770,Cebu City,Philippines,PH,10.32,123.75,964169,3
771,Asmara,Eritrea,ER,15.3358,38.9411,963000,3
772,Coimbatore,India,IN,11.0008,76.9633,959823,3
773,Maceió,Brazil,BR,-9.6658,-35.735,957916,3
774,Nada,China,CN,19.5209,109.5808,954259,3
775,Fangchenggang,China,CN,21.6867,108.3547,953300,3
776,Solāpur,India,IN,17.68,75.92,951558,3
777,Freetown,Sierra Leone,SL,8.4833,-13.2331,951000,3
778,Kaiyuan,China,CN,36.0193,113.86,950939,3
779,Buffalo,United States,US,42.9018,-78.8487,949547,3
780,Santo Domingo Este,Dominican Republic,DO,18.4855,-69.8734,948855,3
781,Vientiane,Laos,LA,17.98,102.63,948487,3
782,Kermānshāh,Iran,IR,34.3369,47.0911,946651,3
783,Kibanseke Première,Congo (Kinshasa),CD,-4.4419,15.395,946372,3
784,Seberang Jaya,Malaysia,MY,5.3909,100.4104,946092,3
785,Sale,Morocco,MA,34.0333,-6.8,945101,3
786,Hubli,India,IN,15.3502,75.1376,943788,3
787,El Alto,Bolivia,BO,-16.5047,-68.1633,943000,3
788,Çankaya,Turkey,TR,39.9244,32.8856,942553,3
789,Hwasu-dong,"Korea, South",KR,37.1997,126.8314,941489,3
790,Yingcheng,China,CN,24.21,113.401,941325,3
791,Fort Worth,United States,US,32.7817,-97.3474,941311,3
792,Setagaya,Japan,JP,35.6466,139.6532,940071,3
793,Keçiören,Turkey,TR,40,32.8667,939279,3
794,Luocheng,China,CN,22.7689,111.5697,936931,3
795,Jerusalem,Israel,IL,31.7789,35.2256,936425,3
796,Khartoum North,Sudan,SD,15.6333,32.6333,936349,3
797,Meishan,China,CN,34.167,112.844,936000,3
798,Mushin,Nigeria,NG,6.5333,3.35,935400,3
799,Trujillo,Peru,PE,-8.112,-79.0288,935147,3
800,Kitakyūshū,Japan,JP,33.8833,130.8833,935084,3
801,Aguascalientes,Mexico,MX,21.876,-102.296,934424,3
802,Khulna,Bangladesh,BD,22.8167,89.55,928891,3
803,Chihuahua,Mexico,MX,28.6369,-106.0769,925762,3
804,Bridgeport,United States,US,41.1918,-73.1954,921660,3
805,Xin’an,China,CN,34.286,118.355,920628,3
806,Mysore,India,IN,12.3086,76.6531,920550,3
807,Kashgar,China,CN,39.4681,75.9938,920000,3
808,Sŏngnam,"Korea, South",KR,37.4333,127.15,918771,3
809,New Orleans,United States,US,30.0687,-89.9288,918752,3
810,Trichinopoly,India,IN,10.7903,78.7047,916857,3
811,Cartagena,Colombia,CO,10.4,-75.5,914552,3
812,Qingzhou,China,CN,36.6853,118.4796,914047,3
813,Naples,Italy,IT,40.8358,14.2486,913462,3
814,Santiago del Estero,Argentina,AR,-27.7833,-64.2667,911506,3
815,Naucalpan de Juárez,Mexico,MX,19.4753,-99.2378,910407,3
816,Masbate,Philippines,PH,12.27,123.58,908920,3
817,Owerri,Nigeria,NG,5.485,7.035,908109,3
818,Taishan,China,CN,22.252,112.794,907744,3
819,Jiaozhou,China,CN,36.2647,120.0334,907500,3
820,Wuchuan,China,CN,21.441,110.779,907354,3
821,Wafangdian,China,CN,39.6271,121.9796,905082,3
822,La Plata,Argentina,AR,-34.9211,-57.9544,904789,3
823,Bobo-Dioulasso,Burkina Faso,BF,11.1833,-4.2833,903887,3
824,Ad Dammām,Saudi Arabia,SA,26.4333,50.1,903312,3
825,Hanchuan,China,CN,30.6667,113.8333,903296,3
826,Quzhou,China,CN,28.9702,118.8593,902767,3
827,Donetsk,Ukraine,UA,48.0028,37.8053,901645,3
828,Ashmūn,Egypt,EG,30.2974,30.9764,901191,3
829,Bunia,Congo (Kinshasa),CD,1.5667,30.25,900666,3
830,Wuchang,China,CN,44.924,127.158,897705,3
831,São Gonçalo,Brazil,BR,-22.8269,-43.0539,896744,3
832,Hengzhou,China,CN,22.6799,109.2614,896099,3
833,Feicheng,China,CN,36.1861,116.7719,894115,3
834,Bucaramanga,Colombia,CO,7.1333,-73,893040,3
835,Cazenga,Angola,AO,-8.8214,13.2911,892401,3
836,Mérida,Mexico,MX,20.9667,-89.6167,892363,3
837,Hegang,China,CN,47.3501,130.298,891271,3
838,Osmangazi,Turkey,TR,40.1983,29.06,891250,3
839,Morādābād,India,IN,28.8319,78.7764,889810,3
840,Bangui,Central African Republic,CF,4.3733,18.5628,889231,3
841,Abeokuta,Nigeria,NG,7.1608,3.3483,888924,3
842,Cancún,Mexico,MX,21.1606,-86.8475,888797,3
843,Zaoyang,China,CN,32.129,112.772,888794,3
844,Dongtai,China,CN,32.795,120.519,888410,3
845,Antipolo,Philippines,PH,14.5842,121.1763,887399,3
846,Taguig City,Philippines,PH,14.52,121.05,886722,3
847,Tabūk,Saudi Arabia,SA,28.3972,36.5789,886036,3
848,Xishan,China,CN,27.6461,113.497,885987,3
849,Zhoushan,China,CN,29.9856,122.2074,882932,3
850,Panama City,Panama,PA,8.9711,-79.5347,880691,3
851,Tucson,United States,US,32.1541,-110.8787,879871,3
852,Yichun,China,CN,47.728,128.841,878881,3
853,As Sulaymānīyah,Iraq,IQ,35.55,45.4333,878146,3
854,Klang,Malaysia,MY,3.0223,101.5481,878000,3
855,Tiruppūr,India,IN,11.1085,77.3411,877778,3
856,Marseille,France,FR,43.2964,5.37,877215,3
857,Gurgaon,India,IN,28.456,77.029,876824,3
858,Yangchun,China,CN,22.1704,111.7916,875896,3
859,Ar Ramādī,Iraq,IQ,33.4258,43.2992,874543,3
860,Hai’an,China,CN,32.535,120.563,874334,3
861,Jalandhar,India,IN,31.326,75.5762,873725,3
862,Daye,China,CN,30.0961,114.9804,871214,3
863,Zhongxiang,China,CN,31.168,112.588,868897,3
864,Gaomi,China,CN,36.3833,119.75,868715,3
865,Teresina,Brazil,BR,-5.0903,-42.8167,868075,3
866,Lhasa,China,CN,29.6534,91.1719,867891,3
867,Ipoh,Malaysia,MY,4.6,101.065,866772,3
868,Saltillo,Mexico,MX,25.4231,-100.9919,864431,3
869,Aden,Yemen,YE,12.8,45.0333,863000,3
870,El Paso,United States,US,31.8476,-106.43,862494,3
871,Gongzhuling,China,CN,43.5053,124.8224,862313,3
872,Lianyuan,China,CN,27.692,111.664,862099,3
873,Ikeja,Nigeria,NG,6.6,3.35,861300,3
874,Tyumen,Russia,RU,57.15,65.5333,861100,3
875,Cochabamba,Bolivia,BO,-17.3883,-66.1597,856198,3
876,Portsmouth,United Kingdom,GB,50.8058,-1.0872,855679,3
877,Southampton,United Kingdom,GB,50.9025,-1.4042,855569,3
878,Hermosillo,Mexico,MX,29.0989,-110.9542,855563,3
879,Cheongju,"Korea, South",KR,36.6333,127.4833,852018,3
880,Shache,China,CN,38.4261,77.25,851374,3
881,Thanh Hóa,Vietnam,VN,19.8075,105.7764,850000,3
882,Macheng,China,CN,31.173,115.008,849090,3
883,Akure,Nigeria,NG,7.25,5.195,847903,3
884,Ilorin,Nigeria,NG,8.5,4.55,847582,3
885,Erbil,Iraq,IQ,36.1911,44.0094,846000,3
886,Kathmandu,Nepal,NP,27.71,85.32,845767,3
887,Turin,Italy,IT,45.0792,7.6761,841600,3
888,Anqiu,China,CN,36.478,119.219,840553,3
889,Yuci,China,CN,37.6823,112.7281,840000,3
890,Dehui,China,CN,44.535,125.703,839786,3
891,Pietermaritzburg,South Africa,ZA,-29.6167,30.3833,839327,3
892,Durban,South Africa,ZA,-29.8833,31.05,838634,3
893,Saratov,Russia,RU,51.53,46.035,838042,3
894,Bhubaneshwar,India,IN,20.27,85.84,837737,3
895,Yushu,China,CN,44.826,126.55,836098,3
896,João Pessoa,Brazil,BR,-7.12,-34.88,833932,3
897,Samarinda,Indonesia,ID,-0.5,117.1378,831460,3
898,Omaha,United States,US,41.2627,-96.0529,826161,3
899,Qingping,China,CN,34.539,113.391,826031,3
900,Rongjiawan,China,CN,29.15,113.1024,826000,3
901,Weichanglu,China,CN,37.1792,119.9333,824708,3
902,Sakai,Japan,JP,34.5733,135.4831,824408,3
903,Eskişehir,Turkey,TR,39.7767,30.5206,820568,3
904,Renqiu,China,CN,38.686,116.084,816401,3
905,Wutong,China,CN,30.6333,120.5333,815848,3
906,Barcelona,Venezuela,VE,10.1403,-64.6833,815141,3
907,Wu’an,China,CN,36.697,114.204,811631,3
908,São Bernardo do Campo,Brazil,BR,-23.6939,-46.565,810729,3
909,McAllen,United States,US,26.2252,-98.2467,810034,3
910,Narela,India,IN,28.85,77.1,809913,3
911,Bhayandar,India,IN,19.29,72.85,809378,3
912,Culiacán,Mexico,MX,24.8069,-107.3939,808416,3
913,N’Djamena,Chad,TD,12.1053,15.0447,807000,3
914,Xiashi,China,CN,30.5333,120.6833,806966,3
915,Cúcuta,Colombia,CO,7.8942,-72.5039,806378,3
916,Danyang,China,CN,32,119.586,806300,3
917,Dongyang,China,CN,29.2667,120.2167,804398,3
918,Kraków,Poland,PL,50.0614,19.9372,804237,3
919,Oran,Algeria,DZ,35.6969,-0.6331,803329,3
920,Pasig City,Philippines,PH,14.5605,121.0765,803159,3
921,Thessaloníki,Greece,GR,40.6403,22.9356,802572,3
922,Blantyre,Malawi,MW,-15.7861,35.0058,800264,3
923,Palermo,Colombia,CO,2.8917,-75.4375,800000,3
924,Qamdo,China,CN,31.143,97.17,798067,3
925,Karīmnagar,India,IN,18.4386,79.1288,797447,3
926,Libreville,Gabon,GA,0.3901,9.4544,797003,3
927,Hejian,China,CN,38.4466,116.0995,795198,3
928,Seyhan,Turkey,TR,36.9831,35.3328,795012,3
929,Laiyang,China,CN,36.9758,120.7136,794986,3
930,Querétaro,Mexico,MX,20.5875,-100.3928,794789,3
931,Wuxi,China,CN,26.58,111.841,791939,3
932,Yiyang,China,CN,26.4221,112.3999,790676,3
933,Niigata,Japan,JP,37.9161,139.0364,790646,3
934,Vinh,Vietnam,VN,18.6667,105.6667,790000,3
935,Puxi,China,CN,35.2125,114.735,789300,3
936,Hempstead,United States,US,40.6629,-73.6089,789177,3
937,Hamamatsu,Japan,JP,34.7108,137.7275,788211,3
938,Zijinglu,China,CN,34.7667,112.9667,785242,3
939,Kumila,Pakistan,PK,35.25,73.5,784711,3
940,Xingyi,China,CN,25.092,104.8955,783120,3
941,Xingcheng,China,CN,24.1347,115.73,779411,3
942,Birmingham,United States,US,33.5279,-86.7971,778756,3
943,Ailan Mubage,China,CN,43.908,81.2777,778047,3
944,Lubango,Angola,AO,-14.9167,13.5,776249,3
945,Frankfurt,Germany,DE,50.1106,8.6822,775790,3
946,Homs,Syria,SY,34.7319,36.7181,775404,3
947,Bilbao,Spain,ES,43.2569,-2.9236,775000,3
948,San Luis Potosí,Mexico,MX,22.1511,-100.9761,772828,3
949,Bucheon,"Korea, South",KR,37.5,126.7833,772450,3
950,Fuyang,China,CN,30.0553,119.95,771000,3
951,Korla,China,CN,41.7259,86.1746,770000,3
952,Khŭjand,Tajikistan,TJ,40.2833,69.6333,770000,3
953,Hamhŭng,"Korea, North",KP,39.9167,127.5333,768551,3
954,Erzurum,Turkey,TR,39.9086,41.2769,767848,3
955,Albuquerque,United States,US,35.1054,-106.6465,767499,3
956,Zagreb,Croatia,HR,45.8131,15.9772,767131,3
957,Al ‘Ayn,United Arab Emirates,AE,24.2075,55.7447,766936,3
958,Dodoma,Tanzania,TZ,-6.1731,35.7419,765179,3
959,Pikine,Senegal,SN,14.744,-17.4021,764597,3
960,Patiāla,India,IN,30.34,76.38,763280,3
961,Bahawalpur,Pakistan,PK,29.3956,71.6836,762111,3
962,Qingnian,China,CN,36.8494,115.7061,760781,3
963,Sanhe,China,CN,40.0167,117.0833,760107,3
964,Kaduna,Nigeria,NG,10.5167,7.4333,760084,3
965,Winnipeg,Canada,CA,49.8844,-97.1464,758515,3
966,Baardheere,Somalia,SO,2.3447,42.2764,755500,3
967,Shīshgarh,India,IN,28.72,79.32,753815,3
968,Leping,China,CN,28.978,117.152,753787,3
969,Colombo,Sri Lanka,LK,6.9167,79.8333,752993,3
970,Nerima,Japan,JP,35.7356,139.6517,752608,3
971,Natal,Brazil,BR,-5.795,-35.2089,751300,3
972,Lichuan,China,CN,30.291,108.9364,750670,3
973,Pendik,Turkey,TR,40.8747,29.235,750435,3
974,Gdańsk,Poland,PL,54.3475,18.6453,749786,3
975,Licheng,China,CN,31.4306,119.4788,749522,3
976,Santo André,Brazil,BR,-23.6533,-46.528,748919,3
977,Andijon,Uzbekistan,UZ,40.7833,72.3333,747800,3
978,Gaalkacyo,Somalia,SO,6.7697,47.4308,745000,3
979,Ōta-ku,Japan,JP,35.5614,139.7161,744849,3
980,Thiruvananthapuram,India,IN,8.5241,76.9366,743691,3
981,Nampula,Mozambique,MZ,-15.1167,39.2667,743000,3
982,Zhuanghe,China,CN,39.681,122.967,742496,3
983,Kyaukse,Burma,MM,21.6131,96.1303,741071,3
984,Tulsa,United States,US,36.1283,-95.9042,740620,3
985,Chengguan,China,CN,35.4623,113.8054,740435,3
986,Bağcılar,Turkey,TR,41.0344,28.8564,740069,3
987,Bouaké,Côte d’Ivoire,CI,7.6833,-5.0331,740000,3
988,Cabinda,Angola,AO,-5.56,12.19,739182,3
989,Kumamoto,Japan,JP,32.8031,130.7078,738385,3
990,Kermān,Iran,IR,30.2625,57.0575,738374,3
991,Lingbao Chengguanzhen,China,CN,34.5176,110.8942,736300,3
992,Orūmīyeh,Iran,IR,37.5439,45.0647,736224,3
993,Quebec City,Canada,CA,46.8139,-71.2081,733156,3
994,Taihe,China,CN,30.871,105.388,732380,3
995,Yanggok,"Korea, South",KR,37.6333,127.2167,732376,3
996,Zhongba,China,CN,31.771,104.755,731343,3
997,Osogbo,Nigeria,NG,7.7667,4.5667,731000,3
998,Sizhan,China,CN,38.9846,106.3828,730400,3
999,Suohe,China,CN,34.7833,113.35,730135,3
1000,Xiangxiang,China,CN,27.7186,112.5502,730103,3
1001,Hamilton,Canada,CA,43.2567,-79.8692,729560,3
1002,Songyang,China,CN,34.4553,113.0253,729332,3
1003,Cagayan de Oro,Philippines,PH,8.48,124.65,728402,3
1004,Qian’an,China,CN,39.999,118.701,728160,3
1005,Shuangqiao,China,CN,35.067,112.602,727265,3
1006,Chaohucun,China,CN,31.6244,117.8902,727162,3
1007,Manama,Bahrain,BH,26.2233,50.5875,727000,3
1008,Zouping,China,CN,36.863,117.743,726722,3
1009,Charleston,United States,US,32.8168,-79.9687,726389,3
1010,Uvira,Congo (Kinshasa),CD,-3.4,29.15,726000,3
1011,Durgāpur,India,IN,23.55,87.32,726000,3
1012,An Najaf,Iraq,IQ,32.029,44.3396,724700,3
1013,Fresno,United States,US,36.783,-119.7939,724547,3
1014,Cencheng,China,CN,22.9167,111,724364,3
1015,Umraniye,Turkey,TR,41.0311,29.1081,723760,3
1016,Sorocaba,Brazil,BR,-23.5019,-47.4578,723574,3
1017,Guli,China,CN,28.9,120.0333,723490,3
1018,Sagamihara,Japan,JP,35.5667,139.3667,722973,3
1019,Laixi,China,CN,36.8667,120.5333,720103,3
1020,Okayama,Japan,JP,34.65,133.9167,720043,3
1021,Concepción,Chile,CL,-36.8282,-73.0514,719944,3
1022,San Pedro Sula,Honduras,HN,15.5062,-88.0249,719064,3
1023,Mississauga,Canada,CA,43.6,-79.65,717961,3
1024,Changsha,China,CN,22.3773,112.6982,717700,3
1025,Lviv,Ukraine,UA,49.8425,24.0322,717273,3
1026,Shihezi,China,CN,44.3054,86.0804,717000,3
1027,Valenzuela,Philippines,PH,14.7,120.98,714978,3
1028,Huambo,Angola,AO,-12.7767,15.7347,713134,3
1029,Xichang,China,CN,27.8944,102.2644,712434,3
1030,Guangshui,China,CN,31.617,113.826,710900,3
1031,Zaporizhzhia,Ukraine,UA,47.85,35.1175,710052,3
1032,Bhiwandi,India,IN,19.2967,73.0631,709665,3
1033,Gaoyou,China,CN,32.845,119.508,709572,3
1034,Chengxiang,China,CN,31.564,121.174,709500,3
1035,Bhīlwāra,India,IN,25.35,74.63,709483,3
1036,Oslo,Norway,NO,59.9133,10.7389,709037,3
1037,George Town,Malaysia,MY,5.4136,100.3294,708127,3
1038,Bristol,United Kingdom,GB,51.4536,-2.5975,707412,3
1039,Zunhua,China,CN,40.189,117.966,707047,3
1040,Sahāranpur,India,IN,29.9639,77.5458,705478,3
1041,Yenimahalle,Turkey,TR,39.9719,32.8119,704652,3
1042,Warangal,India,IN,17.9689,79.5941,704570,3
1043,Nampo,"Korea, North",KP,38.7356,125.4089,703317,3
1044,Dasmariñas,Philippines,PH,14.33,120.94,703141,3
1045,Shiliguri,India,IN,26.71,88.43,701489,3
1046,Boosaaso,Somalia,SO,11.28,49.18,700906,3
1047,Parachinar,Pakistan,PK,33.9,70.1,700000,3
1048,Latakia,Syria,SY,35.54,35.78,700000,3
1049,Tongchuan,China,CN,34.897,108.945,698322,3
1050,Xindi,China,CN,29.827,113.476,698188,3
1051,Edogawa,Japan,JP,35.7,139.8833,697932,3
1052,General Santos,Philippines,PH,6.12,125.17,697315,3
1053,Ḩamāh,Syria,SY,35.1503,36.73,696863,3
1054,Rochester,United States,US,43.168,-77.6162,694707,3
1055,Bauchi,Nigeria,NG,10.5,10,693700,3
1056,Salem,India,IN,11.65,78.15,693236,3
1057,Sinnūris,Egypt,EG,29.4072,30.8667,692701,3
1058,Cocody,Côte d’Ivoire,CI,5.3351,-4.0039,692583,3
1059,Lokoja,Nigeria,NG,7.8019,6.7442,692050,3
1060,Guadalupe,Mexico,MX,25.6775,-100.2597,691931,3
1061,Selçuklu,Turkey,TR,37.8814,32.4922,690667,3
1062,Karbalā’,Iraq,IQ,32.6167,44.0333,690100,3
1063,Borvāyeh-ye Al Bū ‘Azīz,Iran,IR,31.6283,48.6147,690000,3
1064,City of Parañaque,Philippines,PH,14.5008,120.9915,689992,3
1065,Taihecun,China,CN,45.771,131.003,689611,3
1066,Mamak,Turkey,TR,39.9422,32.9231,687535,3
1067,Jianshe,China,CN,34.2137,113.7629,687130,3
1068,Zaragoza,Spain,ES,41.65,-0.8833,686986,3
1069,Shishi,China,CN,24.7167,118.7,685930,3
1070,Shizuoka,Japan,JP,34.9756,138.3828,685589,3
1071,Agege,Nigeria,NG,6.6219,3.3258,683600,3
1072,Mar del Plata,Argentina,AR,-38,-57.55,682605,3
1073,Adachi,Japan,JP,35.7833,139.8,682326,3
1074,Pontianak,Indonesia,ID,-0.0206,109.3414,680880,3
1075,Rasht,Iran,IR,37.2744,49.5889,679995,3
1076,Xigazê,China,CN,29.25,88.8833,679771,3
1077,Cotonou,Benin,BJ,6.3667,2.4333,679012,3
1078,Tasikmalaya,Indonesia,ID,-7.3161,108.1975,678027,3
1079,Kochi,India,IN,9.9312,76.2673,677381,3
1080,Soledad,Colombia,CO,10.9167,-74.75,676014,3
1081,Shanhu,China,CN,29.6,120.8167,675226,3
1082,Gothenburg,Sweden,SE,57.7075,11.9675,674529,3
1083,Acapulco de Juárez,Mexico,MX,16.8636,-99.8825,673478,3
1084,Gorakhpur,India,IN,26.7637,83.4039,673446,3
1085,Bahār,Iran,IR,34.9078,48.4394,673405,3
1086,Wrocław,Poland,PL,51.11,17.0325,672929,3
1087,Murcia,Spain,ES,37.9861,-1.1303,672773,3
1088,Pinghu,China,CN,30.7,121.0167,671326,3
1089,Guankou,China,CN,30.988,103.647,671200,3
1090,Łódź,Poland,PL,51.7769,19.4547,670642,3
1091,Yatou,China,CN,37.1653,122.4867,670251,3
1092,Denpasar,Indonesia,ID,-8.6717,115.2339,670210,3
1093,Guntūr,India,IN,16.3008,80.4428,670073,3
1094,Tolyatti,Russia,RU,53.5089,49.4222,667956,3
1095,Dayton,United States,US,39.7805,-84.2003,667936,3
1096,Ch’ŏngjin,"Korea, North",KP,41.7833,129.7667,667929,3
1097,Zhaodong,China,CN,46.051,125.962,666532,3
1098,Puyang Chengguanzhen,China,CN,35.7004,114.98,666322,3
1099,Bulawayo,Zimbabwe,ZW,-20.17,28.58,665952,3
1100,Aracaju,Brazil,BR,-10.9111,-37.0717,664908,3
1101,Bacoor,Philippines,PH,14.4624,120.9645,664625,3
1102,Rotterdam,Netherlands,NL,51.92,4.48,664311,3
1103,Tlaquepaque,Mexico,MX,20.6167,-103.3167,664193,3
1104,Villavicencio,Colombia,CO,4.15,-73.6333,664148,3
1105,Campo Grande,Brazil,BR,-20.4686,-54.6222,663621,3
1106,Jingcheng,China,CN,32.009,120.263,663408,3
1107,Makhachkala,Russia,RU,42.9825,47.505,662660,3
1108,Banjarmasin,Indonesia,ID,-3.32,114.5925,662230,3
1109,Kitwe,Zambia,ZM,-12.8167,28.2,661901,3
1110,Catia La Mar,Venezuela,VE,10.6,-67.0333,661897,3
1111,Nneyi-Umuleri,Nigeria,NG,6.3333,6.8333,660821,3
1112,Al Hufūf,Saudi Arabia,SA,25.3608,49.5997,660788,3
1113,Dali,China,CN,25.6811,100.3003,660300,3
1114,Jalingo,Nigeria,NG,8.9,11.3667,660213,3
1115,Sargodha,Pakistan,PK,32.0836,72.6711,659862,3
1116,Karaikandi,India,IN,24.8309,92.6143,659260,3
1117,Ch’ŏnan,"Korea, South",KR,36.81,127.1475,656583,3
1118,Brampton,Canada,CA,43.6833,-79.7667,656480,3
1119,Cape Coral,United States,US,26.6443,-81.9957,656464,3
1120,Haldwāni,India,IN,29.22,79.52,656000,3
1121,Abomey-Calavi,Benin,BJ,6.4486,2.3556,655965,3
1122,Yıldırım,Turkey,TR,40.11,29.0821,655856,3
1123,Dhūlia,India,IN,20.8997,74.7697,655603,3
1124,Zhongshu,China,CN,27.7919,106.4013,655300,3
1125,Durango,Mexico,MX,24.025,-104.6675,654876,3
1126,Songzi,China,CN,30.174,111.757,654762,3
1127,Tondo,Philippines,PH,14.617,120.967,654220,3
1128,Dayrūţ,Egypt,EG,27.5564,30.8106,653847,3
1129,Tlalnepantla,Mexico,MX,19.5367,-99.1947,653410,3
1130,Xiping,China,CN,25.6005,103.8166,652604,3
1131,Osasco,Brazil,BR,-23.5328,-46.7919,652593,3
1132,Huế,Vietnam,VN,16.4619,107.5955,652572,3
1133,San Jose del Monte,Philippines,PH,14.8139,121.0453,651813,3
1134,Denizli,Turkey,TR,37.7833,29.0964,651200,3
1135,Maturín,Venezuela,VE,9.75,-63.183,647459,3
1136,Honchō,Japan,JP,35.6946,139.9826,644668,3
1137,Wuxue,China,CN,29.844,115.561,644247,3
1138,Bhāvnagar,India,IN,21.76,72.15,643382,3
1139,Jinghong,China,CN,22.009,100.797,642737,3
1140,Wugang,China,CN,26.7266,110.6319,640181,3
1141,Sha Tin,Hong Kong,HK,22.3802,114.1898,640000,3
1142,Provo,United States,US,40.2457,-111.6457,639820,3
1143,Chisinau,Moldova,MD,47.0228,28.8353,639000,3
1144,Petaling Jaya,Malaysia,MY,3.0833,101.65,638516,3
1145,Colorado Springs,United States,US,38.8674,-104.7605,638421,3
1146,Tallinn,Estonia,EE,59.4372,24.7453,638076,3
1147,Noida,India,IN,28.57,77.32,637272,3
1148,Las Palmas,Spain,ES,28.1258,-15.4353,635000,3
1149,Mission Viejo,United States,US,33.6096,-117.6551,634674,3
1150,Bhāngar,India,IN,22.58,88.42,634107,3
1151,Allentown,United States,US,40.5961,-75.4756,632175,3
1152,Benghazi,Libya,LY,32.1167,20.0667,631555,3
1153,Chuxiong,China,CN,25.033,101.5459,631530,3
1154,Düsseldorf,Germany,DE,51.2256,6.7767,631217,3
1155,Palermo,Italy,IT,38.1157,13.3613,630167,3
1156,Baton Rouge,United States,US,30.442,-91.1311,630063,3
1157,Makati City,Philippines,PH,14.5567,121.0214,629616,3
1158,Ndola,Zambia,ZM,-12.9689,28.6325,627503,3
1159,Ţūkh,Egypt,EG,30.3549,31.2011,627290,3
1160,Glasgow,United Kingdom,GB,55.8611,-4.25,626410,3
1161,Bazal’tove,Ukraine,UA,50.6765,26.16,625543,3
1162,Al Qaţīf,Saudi Arabia,SA,26.5196,50.0115,625092,3
1163,Bhilai,India,IN,21.21,81.38,624700,3
1164,Mangalore,India,IN,12.8717,74.8425,623841,3
1165,Kaihua,China,CN,23.387,104.233,623772,3
1166,Irkutsk,Russia,RU,52.2892,104.28,623736,3
1167,Ogden,United States,US,41.2279,-111.9682,623688,3
1168,Meilan,China,CN,19.999,110.403,623667,3
1169,Ansan,"Korea, South",KR,37.3167,126.8333,623256,3
1170,Barnaul,Russia,RU,53.3486,83.7764,623057,3
1171,Bazhou,China,CN,39.1333,116.3833,622975,3
1172,Turpan,China,CN,42.9512,89.1895,622903,3
1173,Jos,Nigeria,NG,9.9167,8.8903,622802,3
1174,Langzhong,China,CN,31.558,106.005,622667,3
1175,Qufu,China,CN,35.5819,116.9862,621971,3
1176,Al Manşūrah,Egypt,EG,31.05,31.3833,621953,3
1177,Tengyue,China,CN,25.0167,98.4833,620000,3
1178,Leipzig,Germany,DE,51.34,12.375,619879,3
1179,Ḩalwān,Egypt,EG,29.8493,31.3327,619293,3
1180,Tân An,Vietnam,VN,10.905,106.6994,618984,3
1181,Port-Bouët,Côte d’Ivoire,CI,5.2568,-3.963,618795,3
1182,Izhevsk,Russia,RU,56.8333,53.1833,618776,3
1183,Knoxville,United States,US,35.9692,-83.9496,618226,3
1184,Jurong,China,CN,31.946,119.164,617706,3
1185,Arusha,Tanzania,TZ,-3.3667,36.6833,617631,3
1186,Bihtā,India,IN,25.5619,84.87,617427,3
1187,Yuhuan,China,CN,28.1277,121.2288,616346,3
1188,Khabarovsk,Russia,RU,48.4833,135.0833,615570,3
1189,Etimesgut,Turkey,TR,39.9458,32.6694,614891,3
1190,Changping,China,CN,40.2248,116.1944,614821,3
1191,Chimalhuacán,Mexico,MX,19.4131,-98.9839,614453,3
1192,Kandahār,Afghanistan,AF,31.62,65.7158,614254,3
1193,Oujda-Angad,Morocco,MA,34.6867,-1.9114,614000,3
1194,Ruiming,China,CN,25.886,116.027,613894,3
1195,Serang,Indonesia,ID,-6.12,106.1503,613356,3
1196,Ulyanovsk,Russia,RU,54.3167,48.3667,613334,3
1197,Shenzhou,China,CN,38.002,115.56,613000,3
1198,Jambi,Indonesia,ID,-1.59,103.61,612162,3
1199,Hasanpur,India,IN,28.72,78.28,611533,3
1200,Grand Rapids,United States,US,42.9619,-85.6562,611480,3
1201,Yukarıkaraman,Turkey,TR,36.9167,30.6833,608675,3
1202,Kuantan,Malaysia,MY,3.83,103.32,607778,3
1203,Gold Coast,Australia,AU,-28.0167,153.4,607665,3
1204,Kawaguchi,Japan,JP,35.8077,139.7241,607373,3
1205,Dashiqiao,China,CN,40.6167,122.5167,607098,3
1206,Las Piñas City,Philippines,PH,14.45,120.98,606293,3
1207,Cuttack,India,IN,20.5236,85.7881,606007,3
1208,San Miguel de Tucumán,Argentina,AR,-26.8167,-65.2167,605767,3
1209,Ar Rayyān,Qatar,QA,25.25,51.4,605712,3
1210,Riga,Latvia,LV,56.9475,24.1069,605273,3
1211,Columbia,United States,US,34.0378,-80.9036,605083,3
1212,Salīmpur,India,IN,26.3,83.9167,604483,3
1213,Malanje,Angola,AO,-9.5333,16.35,604215,3
1214,Kryvyi Rih,Ukraine,UA,47.91,33.39,603904,3
1215,Djibouti,Djibouti,DJ,11.5944,43.1481,603900,3
1216,Zhuozhou,China,CN,39.485,115.974,603535,3
1217,Tianchang,China,CN,32.6811,119.0137,602840,3
1218,Albany,United States,US,42.6664,-73.7987,602242,3
1219,Bacolod,Philippines,PH,10.6765,122.9509,600783,3
1220,Garoua,Cameroon,CM,9.3,13.4,600000,3
1221,Bamenda,Cameroon,CM,5.9614,10.1517,600000,3
1222,Bafoussam,Cameroon,CM,5.4667,10.4167,600000,3
1223,Haifa,Israel,IL,32.8192,34.9992,600000,3
1224,Raurkela,India,IN,22.2492,84.8828,600000,3
1225,Tunis,Tunisia,TN,36.8064,10.1817,599368,3
1226,Tumkūr,India,IN,13.34,77.1,599078,3
1227,Balikpapan,Indonesia,ID,-1.2768,116.8277,598043,3
1228,Somolu,Nigeria,NG,6.5408,3.3872,597400,3
1229,Şanlıurfa,Turkey,TR,37.1583,38.7917,596637,3
1230,Dortmund,Germany,DE,51.5139,7.4653,595471,3
1231,Al Mukallā,Yemen,YE,14.5333,49.1333,594951,3
1232,Xinji,China,CN,37.943,115.218,594628,3
1233,Melikgazi,Turkey,TR,38.7167,35.5,594344,3
1234,Kagoshima,Japan,JP,31.5969,130.5572,593754,3
1235,Wenchang,China,CN,31.0358,116.9367,593629,3
1236,Sihui,China,CN,23.3265,112.7338,593400,3
1237,Irapuato,Mexico,MX,20.6667,-101.35,592953,3
1238,Dublin,Ireland,IE,53.3497,-6.2603,592713,3
1239,Al Maḩallah al Kubrá,Egypt,EG,30.9667,31.1667,592573,3
1240,Sialkot City,Pakistan,PK,32.4925,74.5311,591668,3
1241,Vladivostok,Russia,RU,43.115,131.8853,591628,3
1242,Luocheng,China,CN,30.99,104.25,591115,3
1243,Pereira,Colombia,CO,4.8143,-75.6946,590554,3
1244,Gaza,Gaza Strip,XG,31.5069,34.456,590481,3
1245,Reynosa,Mexico,MX,26.0922,-98.2778,589466,3
1246,Zāhedān,Iran,IR,29.5025,60.8558,587730,3
1247,Essen,Germany,DE,51.4508,7.0131,586608,3
1248,Cimahi,Indonesia,ID,-6.8712,107.5548,586580,3
1249,Wenlan,China,CN,23.3961,103.3649,585976,3
1250,Itabashi,Japan,JP,35.7667,139.6833,584483,3
1251,Shah Alam,Malaysia,MY,3.0667,101.55,584340,3
1252,Suginami-ku,Japan,JP,35.6994,139.6364,583609,3
1253,Jaboatão dos Guararapes,Brazil,BR,-8.1128,-35.015,581556,3
1254,Vilnius,Lithuania,LT,54.6872,25.28,581475,3
1255,Kingston,Jamaica,JM,17.9714,-76.7931,580000,3
1256,Al Mafraq,Jordan,JO,32.3399,36.2052,580000,3
1257,Aţ Ţā’if,Saudi Arabia,SA,21.2667,40.4167,579970,3
1258,Port Sudan,Sudan,SD,19.6158,37.2164,579942,3
1259,Nha Trang,Vietnam,VN,12.245,109.1917,579000,3
1260,Tuxtla,Mexico,MX,16.7528,-93.1167,578830,3
1261,Bakersfield,United States,US,35.3529,-119.0359,578542,3
1262,Dehra Dūn,India,IN,30.345,78.029,578420,3
1263,Bremen,Germany,DE,53.0758,8.8072,577026,3
1264,Fu’an,China,CN,27.1,119.6333,577000,3
1265,Mymensingh,Bangladesh,BD,24.7504,90.38,576927,3
1266,Hachiōji,Japan,JP,35.6664,139.316,575721,3
1267,Iloilo,Philippines,PH,10.72,122.57,574000,3
1268,Puente Alto,Chile,CL,-33.6167,-70.5667,573935,3
1269,Botou,China,CN,38.0833,116.5833,573842,3
1270,Rabat,Morocco,MA,34.0209,-6.8416,572717,3
1271,Sincan,Turkey,TR,39.9594,32.5767,572609,3
1272,Kabinda,Congo (Kinshasa),CD,-6.13,24.48,572000,3
1273,Kottayam,India,IN,9.5916,76.5222,571856,3
1274,Kahramanmaraş,Turkey,TR,37.5833,36.9333,571266,3
1275,Shibīn al Qanāţir,Egypt,EG,30.3127,31.3202,570868,3
1276,Tonalá,Mexico,MX,20.6167,-103.2333,569913,3
1277,Abū Ḩummuş,Egypt,EG,31.0931,30.3142,569157,3
1278,Irbid,Jordan,JO,32.55,35.85,569068,3
1279,Jin’e,China,CN,29.3394,105.2875,568900,3
1280,Macau,Macau,MO,22.2006,113.5461,568700,3
1281,Xinxing,China,CN,39.8667,124.15,568566,3
1282,Surrey,Canada,CA,49.19,-122.8489,568322,3
1283,Yaroslavl,Russia,RU,57.6167,39.85,567443,3
1284,Qionghu,China,CN,28.945,112.598,567159,3
1285,Dresden,Germany,DE,51.05,13.74,566222,3
1286,Xinmin,China,CN,41.997,122.823,565634,3
1287,New Haven,United States,US,41.3113,-72.9246,565056,3
1288,Antwerp,Belgium,BE,51.2178,4.4003,565039,3
1289,Kuiju,China,CN,36.8667,119.4,564501,3
1290,Āsansol,India,IN,23.68,86.99,563917,3
1291,Bokaro Steel City,India,IN,23.67,86.15,563417,3
1292,Jieshou,China,CN,33.257,115.3746,561956,3
1293,Bello,Colombia,CO,6.3333,-75.5667,561955,3
1294,Kolhāpur,India,IN,16.6917,74.2333,561489,3
1295,Wencheng,China,CN,19.617,110.7551,560894,3
1296,Miluo Chengguanzhen,China,CN,28.761,113.16,560725,3
1297,Lanxi,China,CN,29.208,119.458,560514,3
1298,Zhenzhou,China,CN,32.2723,119.1848,560258,3
1299,Des Moines,United States,US,41.5725,-93.6105,560170,3
1300,Nava Raipur,India,IN,21.161,81.787,560000,3
1301,Gaizhou,China,CN,40.4,122.35,559271,3
1302,Leling,China,CN,37.73,117.232,559166,3
1303,Genoa,Italy,IT,44.4072,8.934,558745,3
1304,Ensenada,Mexico,MX,31.8578,-116.6058,557430,3
1305,Herāt,Afghanistan,AF,34.3419,62.2031,556205,3
1306,Uyo,Nigeria,NG,5.0333,7.9275,554906,3
1307,Hamadān,Iran,IR,34.8064,48.5161,554406,3
1308,Chiclayo,Peru,PE,-6.763,-79.8366,552508,3
1309,Surakarta,Indonesia,ID,-7.5667,110.8167,552118,3
1310,Ajmer,India,IN,26.4499,74.6399,551101,3
1311,Braunschweig,Germany,DE,52.2667,10.5167,551000,3
1312,Nānded,India,IN,19.15,77.3,550439,3
1313,Wuhai,China,CN,39.655,106.794,550000,3
1314,Palma,Spain,ES,39.5667,2.65,550000,3
1315,Rustenburg,South Africa,ZA,-25.6667,27.2428,549575,3
1316,Amrāvati,India,IN,20.9258,77.7647,549370,3
1317,Lisbon,Portugal,PT,38.7122,-9.134,548703,3
1318,Yanji,China,CN,42.9,129.5,548700,3
1319,The Hague,Netherlands,NL,52.08,4.31,548320,3
1320,Hannover,Germany,DE,52.3667,9.7167,548186,3
1321,Sevastopol,Ukraine,UA,44.605,33.5225,547820,3
1322,Palm Bay,United States,US,27.9631,-80.6593,547659,3
1323,Manchester,United Kingdom,GB,53.479,-2.2452,547627,3
1324,Nellore,India,IN,14.4431,79.9861,547621,3
1325,Poznań,Poland,PL,52.4083,16.9336,546859,3
1326,Ibagué,Colombia,CO,4.4333,-75.2333,546003,3
1327,Wancheng,China,CN,18.8,110.4,545992,3
1328,Tomsk,Russia,RU,56.5,84.9667,545391,3
1329,Sungai Petani,Malaysia,MY,5.6497,100.4793,544851,3
1330,Xinshi,China,CN,31.1333,113.1167,544843,3
1331,Kemerovo,Russia,RU,55.3667,86.0667,544600,3
1332,Naberezhnyye Chelny,Russia,RU,55.6833,52.3167,544383,3
1333,Valledupar,Colombia,CO,10.4833,-73.25,544134,3
1334,Muntinlupa City,Philippines,PH,14.38,121.05,543445,3
1335,K’ebrī Beyah,Ethiopia,ET,9.0833,43.0833,543272,3
1336,Luofeng,China,CN,37.359,120.396,543127,3
1337,Ghulja,China,CN,43.9,81.35,542507,3
1338,Ixtapaluca,Mexico,MX,19.3186,-98.8822,542211,3
1339,Fuding,China,CN,27.2,120.2,542000,3
1340,Heroica Matamoros,Mexico,MX,25.8797,-97.5042,541979,3
1341,Mbeya,Tanzania,TZ,-8.9,33.45,541603,3
1342,An Nāşirīyah,Iraq,IQ,31.0439,46.2575,541600,3
1343,Al Ḩillah,Iraq,IQ,32.4833,44.4333,541034,3
1344,Lingyuan,China,CN,41.25,119.4,540832,3
1345,Juiz de Fora,Brazil,BR,-21.7642,-43.3503,540756,3
1346,Guixi,China,CN,28.2925,117.2454,540572,3
1347,City of Calamba,Philippines,PH,14.22,121.17,539671,3
1348,São José dos Campos,Brazil,BR,-23.1789,-45.8869,539313,3
1349,Akron,United States,US,41.0798,-81.5219,538659,3
1350,El Geneina,Sudan,SD,13.45,22.44,538390,3
1351,Contagem,Brazil,BR,-19.9319,-44.0539,538017,3
1352,Santa Cruz,Spain,ES,28.4667,-16.25,538000,3
1353,Agadir,Morocco,MA,30.4214,-9.5831,538000,3
1354,Orenburg,Russia,RU,51.7833,55.1,536862,3
1355,Nilüfer,Turkey,TR,40.2833,28.95,536365,3
1356,Leeds,United Kingdom,GB,53.7975,-1.5436,536280,3
1357,Kassala,Sudan,SD,15.45,36.4,536009,3
1358,Aksu,China,CN,41.185,80.2904,535657,3
1359,Salta,Argentina,AR,-24.7833,-65.4167,535303,3
1360,Dispur,India,IN,26.1397,91.7925,534872,3
1361,Gulbarga,India,IN,17.329,76.825,533587,3
1362,Nansana,Uganda,UG,0.3639,32.5286,532800,3
1363,Kimhae,"Korea, South",KR,35.2342,128.8811,531966,3
1364,Novokuznetsk,Russia,RU,53.7667,87.1333,531186,3
1365,Beira,Mozambique,MZ,-19.8333,34.85,530604,3
1366,Balashikha,Russia,RU,55.8167,37.9667,530311,3
1367,Yazd,Iran,IR,31.8822,54.3397,529673,3
1368,Ardabīl,Iran,IR,38.2517,48.2975,529374,3
1369,Touba,Senegal,SN,14.8667,-15.8833,529176,3
1370,Bīkaner,India,IN,28.0167,73.3119,529007,3
1371,Gaobeidian,China,CN,39.327,115.874,528903,3
1372,Mixco,Guatemala,GT,14.6331,-90.6064,527828,3
1373,Himeji,Japan,JP,34.8167,134.6833,527596,3
1374,Bandar ‘Abbās,Iran,IR,27.1961,56.2878,526648,3
1375,Nuremberg,Germany,DE,49.4539,11.0775,526091,3
1376,Concord,United States,US,37.9722,-122.0016,525233,3
1377,Van,Turkey,TR,38.4942,43.38,525016,3
1378,Port Said,Egypt,EG,31.2625,32.3061,524433,3
1379,Kōtō-ku,Japan,JP,35.6667,139.8167,523419,3
1380,Ciudad Apodaca,Mexico,MX,25.7817,-100.1886,523370,3
1381,Kitchener,Canada,CA,43.4186,-80.4728,522888,3
1382,Agartala,India,IN,23.8314,91.2869,522613,3
1383,Soacha,Colombia,CO,4.5872,-74.2214,522442,3
1384,Buca,Turkey,TR,38.35,27.1667,522404,3
1385,Maipú,Chile,CL,-33.5167,-70.7667,521627,3
1386,Arāk,Iran,IR,34.0914,49.6933,520944,3
1387,Lyon,France,FR,45.76,4.84,520774,3
1388,Tultitlán de Mariano Escobedo,Mexico,MX,19.645,-99.1694,520557,3
1389,Ryazan,Russia,RU,54.63,39.7425,520509,3
1390,Meknès,Morocco,MA,33.895,-5.5547,520428,3
1391,Luanzhou,China,CN,39.741,118.704,520102,3
1392,Al Fayyūm,Egypt,EG,29.3,30.8333,519047,3
1393,Utsunomiya,Japan,JP,36.555,139.8825,518197,3
1394,Sheffield,United Kingdom,GB,53.3808,-1.4703,518090,3
1395,Chānda,India,IN,19.95,79.297,518000,3
1396,Suez,Egypt,EG,29.9667,32.5333,516959,3
1397,Heshan,China,CN,22.7667,112.95,516500,3
1398,Loni,India,IN,28.75,77.28,516082,3
1399,Jiaji,China,CN,19.2431,110.4642,515700,3
1400,Qaraghandy,Kazakhstan,KZ,49.8028,73.1056,515632,3
1401,Santa Marta,Colombia,CO,11.2419,-74.2053,515556,3
1402,Ujjain,India,IN,23.17,75.79,515215,3
1403,Abū Ţisht,Egypt,EG,26.1204,32.0954,514535,3
1404,Samarkand,Uzbekistan,UZ,39.6547,66.9758,513572,3
1405,Liverpool,United Kingdom,GB,53.4072,-2.9917,513441,3
1406,Macapá,Brazil,BR,0.033,-51.05,512902,3
1407,Benguela,Angola,AO,-12.55,13.4167,512886,3
1408,Cuito,Angola,AO,-12.3833,16.9333,512706,3
1409,Al Fashn,Egypt,EG,28.8231,30.899,512242,3
1410,Toulouse,France,FR,43.6045,1.444,511684,3
1411,Al ‘Amārah,Iraq,IQ,31.8333,47.15,511500,3
1412,Carrefour,Haiti,HT,18.5333,-72.4,511345,3
1413,Campos,Brazil,BR,-21.7523,-41.3304,511168,3
1414,Cadaado,Somalia,SO,6.1393,46.6241,510654,3
1415,Meihekou,China,CN,42.5407,125.7107,509336,3
1416,Kenitra,Morocco,MA,34.25,-6.5833,507736,3
1417,Newcastle,South Africa,ZA,-27.7464,29.9328,507710,3
1418,Mesa,United States,US,33.4015,-111.7178,507478,3
1419,Jhānsi,India,IN,25.4486,78.5696,507000,3
1420,Matsuyama,Japan,JP,33.8333,132.7667,506743,3
1421,Ulhāsnagar,India,IN,19.22,73.15,506098,3
1422,Ribeirão Prêto,Brazil,BR,-21.1776,-47.8101,504923,3
1423,Pohang,"Korea, South",KR,36.0322,129.365,503780,3
1424,Duisburg,Germany,DE,51.4347,6.7625,503707,3
1425,Jammu,India,IN,32.73,74.87,502197,3
1426,Ile-Ife,Nigeria,NG,7.4833,4.5592,501952,3
1427,Wichita,United States,US,37.6895,-97.3443,501760,3
1428,Mazatlán,Mexico,MX,23.2167,-106.4167,501441,3
1429,Uberlândia,Brazil,BR,-18.9189,-48.2769,501214,3
1430,Homyel’,Belarus,BY,52.4453,30.9842,501102,3
1431,Farāh,Afghanistan,AF,32.3436,62.1194,500000,3
1432,Belas,Angola,AO,-8.9983,13.265,500000,3
1433,Talatona,Angola,AO,-8.9167,13.1833,500000,3
1434,Nenjiang,China,CN,49.11,125.13,500000,3
1435,Tuticorin,India,IN,8.8056,78.145,500000,3
1436,Asaba,Nigeria,NG,6.1833,6.7333,500000,3
1437,El Fasher,Sudan,SD,13.63,25.35,500000,3
1438,Sukkur,Pakistan,PK,27.7061,68.8483,499900,3
1439,K’ebrī Dehar,Ethiopia,ET,6.7333,44.2667,499500,3
1440,Harrisburg,United States,US,40.2752,-76.8843,499494,3
1441,Taozhou,China,CN,30.8956,119.411,499132,3
1442,Anlu,China,CN,31.2667,113.6667,498356,3
1443,Lapu-Lapu City,Philippines,PH,10.3127,123.9488,497604,3
1444,Matsudo,Japan,JP,35.7876,139.9032,497514,3
1445,Johor Bahru,Malaysia,MY,1.482,103.7281,497097,3
1446,Purnea,India,IN,25.778,87.476,496830,3
1447,Imus,Philippines,PH,14.4297,120.9367,496794,3
1448,Niterói,Brazil,BR,-22.8833,-43.1036,496696,3
1449,Lipetsk,Russia,RU,52.6167,39.6,496403,3
1450,Cheboksary,Russia,RU,56.15,47.2333,496350,3
1451,Staten Island,United States,US,40.5834,-74.1496,495747,3
1452,Likasi,Congo (Kinshasa),CD,-10.9833,26.7333,495000,3
1453,Xiangyang,China,CN,34.2995,108.4905,494887,3
1454,Jiangshan,China,CN,28.7361,118.625,494412,3
1455,Duyun,China,CN,26.2594,107.5186,493574,3
1456,Pindi Bhattian,Pakistan,PK,31.8958,73.2761,493222,3
1457,Nyala,Sudan,SD,12.05,24.8833,492984,3
1458,Ichikawa,Japan,JP,35.7219,139.9311,492749,3
1459,Villa Nueva,Guatemala,GT,14.5269,-90.5875,492480,3
1460,Kumul,China,CN,42.8193,93.5151,492096,3
1461,Toledo,United States,US,41.6638,-83.5827,492076,3
1462,Bissau,Guinea-Bissau,GW,11.85,-15.5667,492004,3
1463,Accra,Ghana,GH,5.5461,-0.2067,491817,3
1464,Kota Bharu,Malaysia,MY,6.12,102.23,491237,3
1465,Higashi-ōsaka,Japan,JP,34.6794,135.6008,490819,3
1466,Larkana,Pakistan,PK,27.5583,68.2111,490508,3
1467,Xingcheng,China,CN,40.6167,120.7333,490300,3
1468,‘Ajmān,United Arab Emirates,AE,25.4136,55.4456,490035,3
1469,Ciudad López Mateos,Mexico,MX,19.55,-99.2833,489937,3
1470,Kaliningrad,Russia,RU,54.7003,20.4531,489584,3
1471,Yueqing,China,CN,28.12,120.96,488980,3
1472,Penza,Russia,RU,53.2,45,488299,3
1473,Belgaum,India,IN,15.85,74.5,488157,3
1474,Edinburgh,United Kingdom,GB,55.95,-3.1833,488050,3
1475,Yucheng,China,CN,36.934,116.638,488014,3
1476,Brookhaven,United States,US,40.832,-72.9517,487817,3
1477,Worcester,United States,US,42.2705,-71.8079,487014,3
1478,Nishinomiya-hama,Japan,JP,34.7376,135.3416,487010,3
1479,Karamay,China,CN,45.5799,84.8892,487000,3
1480,Kawachichō,Japan,JP,34.6794,135.6008,486464,3
1481,Zhangshu,China,CN,28.0546,115.5462,485649,3
1482,Mingguang,China,CN,32.7833,117.9667,485627,3
1483,Malatya,Turkey,TR,38.3486,38.3194,485484,3
1484,Garoowe,Somalia,SO,8.4,48.4833,485000,3
1485,Vellore,India,IN,12.9165,79.1325,484690,3
1486,Huanghua,China,CN,38.372,117.33,484313,3
1487,Encheng,China,CN,22.1833,112.3,483907,3
1488,Lianran,China,CN,24.919,102.478,483753,3
1489,Kartal,Turkey,TR,40.8872,29.19,483418,3
1490,Cuiabá,Brazil,BR,-15.5958,-56.0969,483346,3
1491,Akhmīm,Egypt,EG,26.5667,31.75,482666,3
1492,Az Zarqā’,Jordan,JO,32.0833,36.1,481300,3
1493,Mālegaon,India,IN,20.55,74.55,481228,3
1494,Feira de Santana,Brazil,BR,-12.2669,-38.9669,480949,3
1495,Hailun,China,CN,47.4667,126.9667,480216,3
1496,Valletta,Malta,MT,35.8983,14.5125,480134,3
1497,Kolwezi,Congo (Kinshasa),CD,-10.7167,25.4667,480000,3
1498,Jāmnagar,India,IN,22.47,70.07,479920,3
1499,Sylhet,Bangladesh,BD,24.9,91.8667,479837,3
1500,Ananindeua,Brazil,BR,-1.3658,-48.3719,478778,3
1501,Berbera,Somalia,SO,10.4396,45.0143,478000,3
1502,Chiniot,Pakistan,PK,31.7194,72.9842,477781,3
1503,Asunción,Paraguay,PY,-25.2945,-57.6435,477346,3
1504,Chengjiao,China,CN,35.3984,114.0649,476867,3
1505,Bārdoli,India,IN,21.12,73.12,475963,3
1506,Bratislava,Slovakia,SK,48.1447,17.1128,475503,3
1507,Kurashiki,Japan,JP,34.585,133.7722,474862,3
1508,Ōita,Japan,JP,33.2333,131.6067,474804,3
1509,Al Jubayl,Saudi Arabia,SA,27.0046,49.646,474679,3
1510,Worthing,United Kingdom,GB,50.8147,-0.3714,474485,3
1511,Gaya,India,IN,24.75,85.01,474093,3
1512,Port St. Lucie,United States,US,27.2796,-80.3884,473733,3
1513,Xiulin,China,CN,29.7209,112.4254,473707,3
1514,Shekhupura,Pakistan,PK,31.7111,73.9878,473129,3
1515,Piura,Peru,PE,-5.2,-80.6333,473025,3
1516,Vila Velha,Brazil,BR,-20.3364,-40.2936,472762,3
1517,Ar Ruşayfah,Jordan,JO,32.0178,36.0464,472604,3
1518,Kirov,Russia,RU,58.6,49.6833,471754,3
1519,Morogoro,Tanzania,TZ,-6.8242,37.6633,471409,3
1520,San Juan,Argentina,AR,-31.5342,-68.5261,471389,3
1521,Mykolaiv,Ukraine,UA,46.975,31.995,470011,3
1522,Yicheng,China,CN,31.721,112.257,469417,3
1523,Fengcheng,China,CN,40.45,124.0667,469376,3
1524,Mazār-e Sharīf,Afghanistan,AF,36.7,67.1167,469247,3
1525,Xiaoyi,China,CN,36.0833,111.5167,468770,3
1526,Ba‘qūbah,Iraq,IQ,33.7447,44.6436,467900,3
1527,Katlehong,South Africa,ZA,-26.3333,28.15,467890,3
1528,Tel Aviv-Yafo,Israel,IL,32.08,34.78,467875,3
1529,Jiangshandicun,China,CN,28.7412,118.6225,467862,3
1530,Little Rock,United States,US,34.7256,-92.3577,467846,3
1531,Qingzhen,China,CN,26.5704,106.4687,467438,3
1532,Buraydah,Saudi Arabia,SA,26.3664,43.9628,467410,3
1533,Kupang,Indonesia,ID,-10.1702,123.6077,466632,3
1534,Tula,Russia,RU,54.2,37.6167,466609,3
1535,Ambattūr,India,IN,13.1143,80.1548,466205,3
1536,Nakhon Ratchasima,Thailand,TH,14.9806,102.1,466098,3
1537,Tân Uyên,Vietnam,VN,11.0508,106.7636,466053,3
1538,Astrakhan,Russia,RU,46.35,48.035,465524,3
1539,Longjiang,China,CN,27.5819,120.5489,464695,3
1540,Leicester,United Kingdom,GB,52.6361,-1.1331,464395,3
1541,Rushan,China,CN,36.87,121.505,464078,3
1542,Shangzhi,China,CN,45.207,127.965,463358,3
1543,Angeles City,Philippines,PH,15.1472,120.5847,462928,3
1544,Kuqa,China,CN,41.7156,82.9322,462588,3
1545,Kanazawa,Japan,JP,36.5611,136.6564,462479,3
1546,Manado Light,Indonesia,ID,1.4858,124.8347,461636,3
1547,Manado,Indonesia,ID,1.4931,124.8413,461636,3
1548,Kaiyuan,China,CN,42.546,124.038,460927,3
1549,Cranbourne,Australia,AU,-38.0996,145.2834,460491,3
1550,Jalgaon,India,IN,21.004,75.568,460468,3
1551,Madison,United States,US,43.0822,-89.393,460255,3
1552,Chhatarpur,India,IN,24.55,79.3527,459943,3
1553,Fukuyama,Japan,JP,34.4858,133.3622,459576,3
1554,Juba,South Sudan,SS,4.83,31.58,459342,3
1555,Lanús,Argentina,AR,-34.7,-58.4,459263,3
1556,Spokane,United States,US,47.6671,-117.433,458988,3
1557,Ta‘izz,Yemen,YE,13.5789,44.0219,458789,3
1558,Long Beach,United States,US,33.7977,-118.167,458491,3
1559,Kikwit,Congo (Kinshasa),CD,-5.0386,18.8181,458000,3
1560,Pyeongtaek,"Korea, South",KR,36.9922,127.1128,457873,3
1561,Kurnool,India,IN,15.83,78.05,457633,3
1562,Marikina City,Philippines,PH,14.65,121.1,456059,3
1563,Kâğıthane,Turkey,TR,41.0719,28.9664,455943,3
1564,Amagasaki,Japan,JP,34.7333,135.4,455555,3
1565,Melaka,Malaysia,MY,2.2064,102.2465,455300,3
1566,Denton,United States,US,33.2175,-97.1418,455152,3
1567,Ciudad General Escobedo,Mexico,MX,25.7933,-100.1583,454967,3
1568,Reno,United States,US,39.5497,-119.8483,454814,3
1569,Manizales,Colombia,CO,5.0675,-75.51,454494,3
1570,Bornova,Turkey,TR,38.4697,27.2211,454470,3
1571,Puerto La Cruz,Venezuela,VE,10.2,-64.6333,454312,3
1572,Kahama,Tanzania,TZ,-3.8375,32.6,453654,3
1573,Hsinchu,Taiwan,TW,24.8167,120.9833,453536,3
1574,Gaoping,China,CN,35.798,112.924,453054,3
1575,Batman,Turkey,TR,37.887,41.132,452157,3
1576,Demiryol,Turkey,TR,37.887,41.132,452157,3
1577,Erköklü,Turkey,TR,37.887,41.132,452157,3
1578,Avcılar,Turkey,TR,40.9792,28.7214,452132,3
1579,Kota Kinabalu,Malaysia,MY,5.98,116.11,452058,3
1580,Katsushika-ku,Japan,JP,35.7333,139.85,451772,3
1581,Udaipur,India,IN,24.58,73.68,451100,3
1582,Mogi das Cruzes,Brazil,BR,-23.5228,-46.1931,450785,3
1583,Stavropol,Russia,RU,45.05,41.9833,450680,3
1584,General Trias,Philippines,PH,14.38,120.88,450583,3
1585,Warder,Ethiopia,ET,6.9667,45.35,450400,3
1586,Sirājganj,Bangladesh,BD,24.45,89.7167,450000,3
1587,Wāpi,India,IN,20.372,72.917,450000,3
1588,Bắc Giang,Vietnam,VN,21.2667,106.2,450000,3
1589,Boise,United States,US,43.6005,-116.2308,449428,3
1590,Zürich,Switzerland,CH,47.3744,8.5411,448664,3
1591,Constantine,Algeria,DZ,36.35,6.6,448374,3
1592,Nam Định,Vietnam,VN,20.42,106.1683,448225,3
1593,Eslāmshahr,Iran,IR,35.5386,51.2228,448129,3
1594,Rājshāhi,Bangladesh,BD,24.3667,88.6,448087,3
1595,Piraeus,Greece,GR,37.943,23.6469,448051,3
1596,Matadi,Congo (Kinshasa),CD,-5.8167,13.4833,448000,3
1597,Zebediela,South Africa,ZA,-24.31,29.27,448000,3
1598,Shah Latif Town,Pakistan,PK,24.8806,67.1625,447993,3
1599,Tanbei,China,CN,35.088,112.951,447487,3
1600,Londrina,Brazil,BR,-23.31,-51.1628,447065,3
1601,Ado-Ekiti,Nigeria,NG,7.6211,5.2214,446749,3
1602,Bonita Springs,United States,US,26.3558,-81.7859,445500,3
1603,Esenler,Turkey,TR,41.0339,28.8903,445421,3
1604,Sochi,Russia,RU,43.5853,39.7203,444989,3
1605,Santiago de Cuba,Cuba,CU,20.0217,-75.8294,444851,3
1606,Rodriguez,Philippines,PH,14.72,121.12,443954,3
1607,Chauddagram,Bangladesh,BD,23.2244,91.3731,443648,3
1608,San Nicolás de los Garza,Mexico,MX,25.75,-100.2833,443273,3
1609,Taoyuan District,Taiwan,TW,24.9913,121.3143,443273,3
1610,Kissimmee,United States,US,28.3041,-81.4169,442790,3
1611,Baisha,China,CN,29.4896,119.337,442709,3
1612,Ndjili,Congo (Kinshasa),CD,-4.4089,15.3775,442138,3
1613,Mathura,India,IN,27.4925,77.6736,441894,3
1614,Meicheng,China,CN,30.631,116.581,441224,3
1615,Lembok,Indonesia,ID,-8.565,116.351,441147,3
1616,Korhogo,Côte d’Ivoire,CI,9.4578,-5.6294,440926,3
1617,Pasay City,Philippines,PH,14.5439,120.995,440656,3
1618,Beipiao,China,CN,41.801,120.771,439998,3
1619,Jiannan,China,CN,31.3333,104.2,439958,3
1620,Halifax,Canada,CA,44.6475,-63.5906,439819,3
1621,Fujisawa,Japan,JP,35.35,139.4667,439728,3
1622,Augusta,United States,US,33.3645,-82.0708,439361,3
1623,Ulan-Ude,Russia,RU,51.8333,107.6,439128,3
1624,Springfield,United States,US,42.1155,-72.5395,438889,3
1625,Laval,Canada,CA,45.5833,-73.75,438366,3
1626,Oakland,United States,US,37.7904,-122.2166,438072,3
1627,Jinchang,China,CN,38.5214,102.188,438026,3
1628,Sunch’ŏn,"Korea, North",KP,39.4167,125.9333,437000,3
1629,Nehe,China,CN,48.4833,124.8833,436906,3
1630,Kursk,Russia,RU,51.7167,36.1833,436678,3
1631,Sāngli,India,IN,16.853,74.583,436639,3
1632,Lobito,Angola,AO,-12.35,13.5464,436467,3
1633,Jeju,"Korea, South",KR,33.513,126.523,435413,3
1634,Zhuangyuan,China,CN,37.3056,120.829,435405,3
1635,Davangere,India,IN,14.4666,75.9242,435125,3
1636,Jian’ou,China,CN,27.0333,118.3167,434451,3
1637,Machida,Japan,JP,35.5542,139.4431,434414,3
1638,Winston-Salem,United States,US,36.1029,-80.261,434231,3
1639,Sanghar,Pakistan,PK,26.0442,68.9536,434087,3
1640,Chang’an,China,CN,29.4768,113.4504,433200,3
1641,Al Marāghah,Egypt,EG,26.6998,31.6046,432678,3
1642,Bandung,Indonesia,ID,-6.912,107.6097,432557,3
1643,Shahe,China,CN,36.8549,114.5033,431746,3
1644,Calicut,India,IN,11.2588,75.7804,431560,3
1645,Windhoek,Namibia,NA,-22.57,17.0836,431000,3
1646,Joinvile,Brazil,BR,-26.3039,-48.8458,429604,3
1647,Ismailia,Egypt,EG,30.5833,32.2667,429465,3
1648,Cusco,Peru,PE,-13.525,-71.9722,428450,3
1649,Veracruz,Mexico,MX,19.1903,-96.1533,428323,3
1650,Sokoto,Nigeria,NG,13.0833,5.25,427760,3
1651,Kashiwa,Japan,JP,35.8676,139.9758,427603,3
1652,Al Bājūr,Egypt,EG,30.4305,31.0368,427017,3
1653,Yan’an Beilu,China,CN,44.0144,87.2674,426253,3
1654,Mothīhāri,India,IN,26.65,84.9167,426158,3
1655,Aomori,Japan,JP,40.8228,140.7469,425962,3
1656,Tepic,Mexico,MX,21.5083,-104.8931,425942,3
1657,Akola,India,IN,20.7,77,425817,3
1658,Mandaluyong City,Philippines,PH,14.58,121.03,425758,3
1659,Aves,Portugal,PT,41.3703,-8.4101,425411,3
1660,Sihŭng,"Korea, South",KR,37.3799,126.8029,425184,3
1661,Burco,Somalia,SO,9.5221,45.5336,425000,3
1662,Tver,Russia,RU,56.8625,35.9242,424969,3
1663,Xalapa,Mexico,MX,19.54,-96.9275,424755,3
1664,Buenaventura,Colombia,CO,3.8772,-77.0267,423927,3
1665,London,Canada,CA,42.9836,-81.2497,423369,3
1666,Piracicaba,Brazil,BR,-22.7252,-47.6493,423323,3
1667,Tétouan,Morocco,MA,35.5667,-5.3667,422757,3
1668,Yogyakarta,Indonesia,ID,-7.8014,110.3644,422732,3
1669,Ciudad Bolívar,Venezuela,VE,8.1219,-63.55,422578,3
1670,Skopje,North Macedonia,MK,41.9961,21.4317,422540,3
1671,Beining,China,CN,41.6,121.8,422289,3
1672,Toyota,Japan,JP,35.0824,137.1563,422106,3
1673,Daloa,Côte d’Ivoire,CI,6.89,-6.45,421871,3
1674,Uijeongbu,"Korea, South",KR,37.7486,127.0389,421579,3
1675,Hpa-An,Burma,MM,16.8906,97.6333,421525,3
1676,Laohekou,China,CN,32.359,111.684,420495,3
1677,Rahimyar Khan,Pakistan,PK,28.42,70.3,420419,3
1678,Ugep,Nigeria,NG,5.8,8.0833,420000,3
1679,Thái Nguyên,Vietnam,VN,21.6,105.85,420000,3
1680,Seremban,Malaysia,MY,2.7105,101.94,419536,3
1681,Kayapınar,Turkey,TR,37.95,40.1667,419513,3
1682,Campina Grande,Brazil,BR,-7.2306,-35.8811,419379,3
1683,Xicheng,China,CN,23.3667,103.15,419314,3
1684,Kowloon City,Hong Kong,HK,22.3282,114.1916,418732,3
1685,Santos,Brazil,BR,-23.9608,-46.3339,418608,3
1686,Tirana,Albania,AL,41.3272,19.8186,418495,3
1687,Kushtia,Bangladesh,BD,23.9,89.12,418312,3
1688,El Obeid,Sudan,SD,13.1833,30.2167,418280,3
1689,Mauá,Brazil,BR,-23.6678,-46.4608,418261,3
1690,Xingren,China,CN,25.435,105.1862,417919,3
1691,Takamatsu,Japan,JP,34.35,134.05,417814,3
1692,Stockton,United States,US,37.9765,-121.3109,416005,3
1693,Ajdābiyā,Libya,LY,30.77,20.22,416000,3
1694,Callao,Peru,PE,-12.0522,-77.1392,415888,3
1695,Awsīm,Egypt,EG,30.1222,31.1333,415735,3
1696,Shinagawa-ku,Japan,JP,35.6,139.7333,415729,3
1697,Paju,"Korea, South",KR,37.8667,126.8,415345,3
1698,Beylikdüzü,Turkey,TR,41.0011,28.6419,415290,3
1699,Việt Trì,Vietnam,VN,21.3,105.4333,415280,3
1700,Santa Rosa,Philippines,PH,14.32,121.12,414812,3
1701,Nagqu,China,CN,31.476,92.051,414554,3
1702,Bettiah,India,IN,26.8014,84.5028,414453,3
1703,Jhang City,Pakistan,PK,31.2694,72.3161,414131,3
1704,Fujin,China,CN,47.25,132.0333,414090,3
1705,Altındağ,Turkey,TR,39.9636,32.9033,413994,3
1706,Yuanping,China,CN,38.731,112.711,413922,3
1707,Talā,Egypt,EG,30.6798,30.9436,413839,3
1708,Ţalkhā,Egypt,EG,31.0592,31.3767,413584,3
1709,Boa Vista,Brazil,BR,2.82,-60.6719,413486,3
1710,Banjul,"Gambia, The",GM,13.4581,-16.5786,413397,3
1711,Jayapura,Indonesia,ID,-2.533,140.717,413283,3
1712,Toyama,Japan,JP,36.6959,137.2137,413028,3
1713,Sanandaj,Iran,IR,35.3114,46.9961,412767,3
1714,Khon Kaen,Thailand,TH,16.4333,102.8333,412758,3
1715,Linghai,China,CN,41.1667,121.35,412513,3
1716,Shorāpur,India,IN,16.52,76.76,412291,3
1717,Koumassi,Côte d’Ivoire,CI,5.2972,-3.9675,412282,3
1718,Durham,United States,US,35.9792,-78.9022,411362,3
1719,Tinnevelly,India,IN,8.7136,77.7567,411298,3
1720,Pasto,Colombia,CO,1.2078,-77.2772,410835,3
1721,Chattanooga,United States,US,35.066,-85.2481,410795,3
1722,Bellary,India,IN,15.1,76.9167,410445,3
1723,Bhāgalpur,India,IN,25.25,87,410210,3
1724,Danjiangkou,China,CN,32.5401,111.5131,409940,3
1725,Kisumu,Kenya,KE,-0.1,34.75,409928,3
1726,Zhangjiakou Shi Xuanhua Qu,China,CN,40.5944,115.0243,409745,3
1727,Maringá,Brazil,BR,-23.425,-51.9389,409657,3
1728,Manampizha,India,IN,9.2972,76.65,409271,3
1729,Kocasinan,Turkey,TR,38.7333,35.4833,409005,3
1730,Mataram,Indonesia,ID,-8.5833,116.1167,408900,3
1731,Magnitogorsk,Russia,RU,53.3833,59.0333,408715,3
1732,Greenville,United States,US,34.8354,-82.3646,408626,3
1733,Zhijiang,China,CN,30.426,111.761,408487,3
1734,Zaria,Nigeria,NG,11.0667,7.7,408198,3
1735,Lancaster,United States,US,40.042,-76.3012,408023,3
1736,Fenyang,China,CN,37.2616,111.7699,407647,3
1737,Syracuse,United States,US,43.0407,-76.1437,407625,3
1738,Biñan,Philippines,PH,14.33,121.08,407437,3
1739,Gebze,Turkey,TR,40.8,29.4333,407019,3
1740,Shashemenē,Ethiopia,ET,7.2,38.6,407000,3
1741,Fangting,China,CN,31.127,104.167,406775,3
1742,Shulan,China,CN,44.4059,126.9655,406744,3
1743,Wanyuan,China,CN,31.9833,107.9667,406685,3
1744,Jiexiu,China,CN,37.027,111.917,406517,3
1745,Hat Yai,Thailand,TH,7.0167,100.4667,406513,3
1746,Bağlar,Turkey,TR,37.9167,40.1833,406471,3
1747,Sham Shui Po,Hong Kong,HK,22.3307,114.1622,405869,3
1748,Santa Fe,Argentina,AR,-31.6333,-60.7,405683,3
1749,Delhi Cantonment,India,IN,28.6,77.1333,405633,3
1750,Cumaná,Venezuela,VE,10.4564,-64.1675,405626,3
1751,Fayetteville,United States,US,36.0714,-94.1661,405556,3
1752,Barura,Bangladesh,BD,23.3683,91.0484,405118,3
1753,Kumi,"Korea, South",KR,36.1195,128.3444,404691,3
1754,Nagasaki,Japan,JP,32.7447,129.8736,404656,3
1755,Al Ḩudaydah,Yemen,YE,14.8022,42.9511,404062,3
1756,Pencheng,China,CN,29.676,115.681,403655,3
1757,Salt Lake City,India,IN,22.61,88.4,403316,3
1758,Qazvīn,Iran,IR,36.2886,50.0069,402748,3
1759,Etāwa,India,IN,24.18,78.2,402678,3
1760,Sonīpat,India,IN,28.99,77.022,402000,3
1761,Jundiaí,Brazil,BR,-23.1864,-46.8842,401896,3
1762,Pensacola,United States,US,30.4413,-87.1911,401535,3
1763,Bogra,Bangladesh,BD,24.851,89.3711,400983,3
1764,Brno,Czechia,CZ,49.1925,16.6083,400566,3
1765,Öskemen,Kazakhstan,KZ,49.9833,82.6167,400142,3
1766,Gifu,Japan,JP,35.4232,136.7608,400118,3
1767,Montería,Colombia,CO,8.75,-75.8833,400000,3
1768,Maungdaw,Burma,MM,20.8167,92.3667,400000,3
1769,Igboho,Nigeria,NG,8.8333,3.75,400000,3
1770,Yüreğir,Turkey,TR,36.9928,35.3764,399910,3
1771,Pingquan,China,CN,41.0184,118.702,399378,3
1772,Toyonaka,Japan,JP,34.7833,135.4667,399263,3
1773,Dera Ghazi Khan,Pakistan,PK,30.0331,70.64,399064,3
1774,Hatay,Turkey,TR,36.2025,36.1606,399045,3
1775,Luhansk,Ukraine,UA,48.5678,39.3031,397677,3
1776,Miyazaki,Japan,JP,31.9078,131.4203,397476,3
1777,Dangyang,China,CN,30.821,111.789,397465,3
1778,Quilon,India,IN,8.8932,76.6141,397419,3
1779,Mulangodi,India,IN,9,76.6167,397419,3
1780,Munro Turuttu,India,IN,9,76.6167,397419,3
1781,Barinas,Venezuela,VE,8.6333,-70.2,397279,3
1782,Gwangju,"Korea, South",KR,37.3667,127.2833,397269,3
1783,Nangong,China,CN,37.359,115.409,396718,3
1784,Hirakata,Japan,JP,34.8167,135.65,396694,3
1785,Sandakan,Malaysia,MY,5.843,118.108,396290,3
1786,Szczecin,Poland,PL,53.4325,14.5481,396168,3
1787,Surgut,Russia,RU,61.25,73.4333,395900,3
1788,Yongji,China,CN,34.867,110.448,394935,3
1789,Arlington,United States,US,32.6998,-97.125,394769,3
1790,Karūr,India,IN,10.9601,78.0766,394719,3
1791,Betsiboka,Madagascar,MG,-16.8667,46.95,394561,3
1792,Ijebu-Ode,Nigeria,NG,6.8208,3.9208,394246,3
1793,Al Jahrā’,Kuwait,KW,29.35,47.6833,393432,3
1794,Tanga,Tanzania,TZ,-5.0742,39.0992,393429,3
1795,Diadema,Brazil,BR,-23.6858,-46.6228,393237,3
1796,Saurimo,Angola,AO,-9.65,20.4,393000,3
1797,Jālna,India,IN,19.841,75.8864,393000,3
1798,Yola,Nigeria,NG,9.23,12.46,392854,3
1799,Zhugang,China,CN,28.1358,121.2264,392800,3
1800,Hejin,China,CN,35.596,110.712,392561,3
1801,Dunhua,China,CN,43.3667,128.2333,392486,3
1802,Tāngāil,Bangladesh,BD,24.25,89.92,392300,3
1803,Khayelitsha,South Africa,ZA,-34.0403,18.6778,391749,3
1804,Ad Dīwānīyah,Iraq,IQ,31.9892,44.9247,391600,3
1805,Nnewi,Nigeria,NG,6.0167,6.9167,391227,3
1806,San-Pédro,Côte d’Ivoire,CI,4.7704,-6.64,390654,3
1807,Gujrat,Pakistan,PK,32.5739,74.0789,390533,3
1808,Huili Chengguanzhen,China,CN,26.6333,102.25,390531,3
1809,Yokosuka,Japan,JP,35,16,390275,3
1810,Aurora,United States,US,39.7083,-104.7237,390201,3
1811,Asyūţ,Egypt,EG,27.1869,31.1714,389307,3
1812,Gwoza,Nigeria,NG,11.0861,13.6914,388600,3
1813,Sampaloc,Philippines,PH,14.6031,121.0022,388305,3
1814,Saki,Nigeria,NG,8.6667,3.4,388225,3
1815,Bologna,Italy,IT,44.4939,11.3428,387971,3
1816,Aqtöbe,Kazakhstan,KZ,50.2836,57.2297,387807,3
1817,Cilegon,Indonesia,ID,-6.0027,106.0112,387543,3
1818,Uvinza,Tanzania,TZ,-5.1069,30.3839,387442,3
1819,Ḩafr al Bāţin,Saudi Arabia,SA,28.4337,45.9601,387096,3
1820,Elazığ,Turkey,TR,38.6744,39.2228,387072,3
1821,Zanjān,Iran,IR,36.6864,48.4953,386851,3
1822,Bairia,India,IN,25.7583,84.1489,386745,3
1823,Oyo,Nigeria,NG,7.8417,3.9306,386723,3
1824,Taytay,Philippines,PH,14.5692,121.1325,386451,3
1825,Kisenzi,Congo (Kinshasa),CD,-4.4094,15.3425,386151,3
1826,Bhātpāra,India,IN,22.87,88.41,386019,3
1827,Sintra,Portugal,PT,38.7974,-9.3904,385606,3
1828,Manisa,Turkey,TR,38.6144,27.4292,385452,3
1829,Sirūr,India,IN,18.83,74.38,385414,3
1830,Tarlac City,Philippines,PH,15.4869,120.59,385398,3
1831,Okazaki,Japan,JP,34.9543,137.1744,385376,3
1832,Ceel Baraf,Somalia,SO,3.2072,45.7593,384630,3
1833,Lingxi,China,CN,27.5036,120.3975,384390,3
1834,Ilesa,Nigeria,NG,7.6167,4.7167,384334,3
1835,Kākināda,India,IN,16.9661,82.255,384182,3
1836,Savar,Bangladesh,BD,23.8482,90.2577,384093,3
1837,Nuevo Laredo,Mexico,MX,27.4861,-99.5069,384033,3
1838,Lecheng,China,CN,25.1333,113.3333,383498,3
1839,Bawshar,Oman,OM,23.5777,58.3998,383257,3
1840,Christchurch,New Zealand,NZ,-43.5311,172.6361,383200,3
1841,Gusau,Nigeria,NG,12.15,6.6667,383162,3
1842,Hancheng,China,CN,35.4667,110.4333,383097,3
1843,Zêtang,China,CN,29.238,91.771,382610,3
1844,Serekunda,"Gambia, The",GM,13.445,-16.675,382096,3
1845,Kanifing,"Gambia, The",GM,13.4475,-16.6725,382096,3
1846,Canberra,Australia,AU,-35.2931,149.1269,381488,3
1847,Minamisuita,Japan,JP,34.7594,135.5169,381238,3
1848,Malabon,Philippines,PH,14.66,120.96,380522,3
1849,Neiva,Colombia,CO,2.9345,-75.2809,380019,3
1850,Hà Tĩnh,Vietnam,VN,18.3333,105.9,380000,3
1851,Huancayo,Peru,PE,-12.0667,-75.2167,378203,3
1852,Celaya,Mexico,MX,20.5222,-100.8122,378143,3
1853,Ichinomiya,Japan,JP,35.3039,136.8031,378108,3
1854,Iquitos,Peru,PE,-3.75,-73.25,377609,3
1855,Pānihāti,India,IN,22.69,88.37,377347,3
1856,Lianzhou,China,CN,24.781,112.377,377220,3
1857,Cainta,Philippines,PH,14.57,121.12,376933,3
1858,Helixi,China,CN,30.6267,118.9861,376857,3
1859,Madīnat as Sādis min Uktūbar,Egypt,EG,29.9361,30.9269,376302,3
1860,Mamou,Guinea,GN,10.3833,-12.0833,376269,3
1861,Scranton,United States,US,41.4044,-75.6649,375462,3
1862,Itaquaquecetuba,Brazil,BR,-23.4864,-46.3486,375011,3
1863,Cantonment,Pakistan,PK,31.5167,74.3833,374872,3
1864,Rohtak,India,IN,28.8909,76.5796,374292,3
1865,Māler Kotla,India,IN,30.5167,75.8833,374000,3
1866,Bhawana,Pakistan,PK,31.5661,72.6461,373841,3
1867,Oxnard,United States,US,34.1964,-119.1815,373423,3
1868,Bryansk,Russia,RU,53.2425,34.3667,373310,3
1869,Lipa City,Philippines,PH,13.9411,121.1622,372931,3
1870,Butuan,Philippines,PH,8.948,125.543,372910,3
1871,Dikirnis,Egypt,EG,31.089,31.5948,372871,3
1872,Takasaki,Japan,JP,36.3219,139.0033,372639,3
1873,Ambon,Indonesia,ID,-3.6967,128.1783,372249,3
1874,Indio,United States,US,33.7346,-116.2346,371926,3
1875,Malakwal,Pakistan,PK,32.5531,73.2067,371869,3
1876,Toyohashi,Japan,JP,34.7692,137.3915,371507,3
1877,Chitungwiza,Zimbabwe,ZW,-17.9939,31.0481,371244,3
1878,Panshi,China,CN,42.95,126.0667,370238,3
1879,Az Zubayr,Iraq,IQ,30.3892,47.7081,370000,3
1880,Bharatpur,Nepal,NP,27.6833,84.4333,369377,3
1881,Petare,Venezuela,VE,10.4833,-66.8167,369000,3
1882,Mardan,Pakistan,PK,34.2012,72.0258,368302,3
1883,Nagano,Japan,JP,36.6486,138.1947,367184,3
1884,Bauru,Brazil,BR,-22.3147,-49.0606,366992,3
1885,La Florida,Chile,CL,-33.5333,-70.5833,366916,3
1886,Nicolás Romero,Mexico,MX,19.5833,-99.3667,366602,3
1887,Jinshan,China,CN,25.1475,101.9764,366512,3
1888,Bochum,Germany,DE,51.4819,7.2158,366385,3
1889,Baguio City,Philippines,PH,16.4119,120.5933,366358,3
1890,Cibinong,Indonesia,ID,-6.485,106.842,365387,3
1891,Sivas,Turkey,TR,39.75,37.0167,365274,3
1892,Kolga,India,IN,22.35,82.68,365253,3
1893,Korba,India,IN,22.3458,82.6963,365253,3
1894,Qardho,Somalia,SO,9.5004,49.166,365000,3
1895,Rio Branco,Brazil,BR,-9.9781,-67.8117,364756,3
1896,Tecámac,Mexico,MX,19.7131,-98.9683,364579,3
1897,Alanya,Turkey,TR,36.55,32,364180,3
1898,Mandaue City,Philippines,PH,10.33,123.93,364116,3
1899,Victorville,United States,US,34.5277,-117.3536,363596,3
1900,Kocaeli,Turkey,TR,40.7625,29.9175,363416,3
1901,Warri,Nigeria,NG,5.5167,5.75,363382,3
1902,Victoria,Canada,CA,48.4283,-123.3647,363222,3
1903,Wŏnsan,"Korea, North",KP,39.1475,127.4461,363127,3
1904,Iligan,Philippines,PH,8.23,124.25,363115,3
1905,Anguo,China,CN,38.418,115.327,363091,3
1906,Coventry,United Kingdom,GB,52.4081,-1.5106,362690,3
1907,Trenton,United States,US,40.2237,-74.7641,362501,3
1908,Keelung,Taiwan,TW,25.1333,121.7333,362487,3
1909,Geita,Tanzania,TZ,-2.8714,32.2294,361671,3
1910,Ivanovo,Russia,RU,56.9967,40.9819,361644,3
1911,Cuenca,Ecuador,EC,-2.8974,-79.0045,361524,3
1912,Caerdydd,United Kingdom,GB,51.4817,-3.1792,361469,3
1913,Blumenau,Brazil,BR,-26.9189,-49.0658,361261,3
1914,Nanqiao,China,CN,30.9167,121.4547,361185,3
1915,Hrodna,Belarus,BY,53.6667,23.8333,361115,3
1916,Florence,Italy,IT,43.7714,11.2542,360930,3
1917,Buurhakaba,Somalia,SO,2.7837,44.0833,360795,3
1918,Bengkulu,Indonesia,ID,-3.7956,102.2592,360495,3
1919,Caxias do Sul,Brazil,BR,-29.1678,-51.1789,360419,3
1920,Malmö,Sweden,SE,55.5833,13.0333,360249,3
1921,Shuanghe,China,CN,30.3746,106.7903,360000,3
1922,Pétion-Ville,Haiti,HT,18.5098,-72.2856,359615,3
1923,Dengtacun,China,CN,41.4333,123.3333,359401,3
1924,Huntsville,United States,US,34.6981,-86.6412,359389,3
1925,Utrecht,Netherlands,NL,52.0908,5.1217,359370,3
1926,Palu,Indonesia,ID,-0.895,119.8594,359350,3
1927,Sīkar,India,IN,27.62,75.15,359293,3
1928,Umuahia,Nigeria,NG,5.5333,7.4833,359230,3
1929,Wuppertal,Germany,DE,51.2667,7.1833,358938,3
1930,Palmira,Colombia,CO,3.5833,-76.25,358895,3
1931,Alicante,Spain,ES,38.3453,-0.4831,358720,3
1932,São José do Rio Prêto,Brazil,BR,-20.82,-49.3789,358523,3
1933,Ash Shuhadā’,Egypt,EG,30.5968,30.8993,358486,3
1934,Ondo,Nigeria,NG,7.0833,4.8333,358430,3
1935,Vitsyebsk,Belarus,BY,55.1917,30.2056,358395,3
1936,Sasarām,India,IN,24.95,84.03,358283,3
1937,Sultanbeyli,Turkey,TR,40.9683,29.2617,358201,3
1938,Xunyang,China,CN,32.8341,109.3653,357876,3
1939,Taraz,Kazakhstan,KZ,42.9,71.3667,357795,3
1940,Cubal,Angola,AO,-13.0333,14.25,357618,3
1941,Anda,China,CN,46.424,125.352,357535,3
1942,Luena,Angola,AO,-11.7918,19.9062,357413,3
1943,Karnāl,India,IN,29.686,76.989,357334,3
1944,Gonaïves,Haiti,HT,19.4456,-72.6883,356324,3
1945,Vinnytsia,Ukraine,UA,49.2333,28.4833,356303,3
1946,Minatitlán,Mexico,MX,17.9833,-94.55,356020,3
1947,Linxia Chengguanzhen,China,CN,35.6047,103.2422,355968,3
1948,Brahmapur,India,IN,19.315,84.7941,355823,3
1949,Modesto,United States,US,37.6375,-121.0028,355686,3
1950,Caucaia,Brazil,BR,-3.7328,-38.6558,355679,3
1951,Cabuyao,Philippines,PH,14.275,121.125,355330,3
1952,Gedaref,Sudan,SD,14.0333,35.3833,354927,3
1953,San Fernando,Philippines,PH,15.03,120.68,354666,3
1954,Kawagoe,Japan,JP,35.9251,139.4858,354598,3
1955,Pokhara,Nepal,NP,28.2097,83.9853,353841,3
1956,Nice,France,FR,43.7034,7.2663,353701,3
1957,Villahermosa,Mexico,MX,17.9892,-92.9281,353577,3
1958,Wakayama,Japan,JP,34.2333,135.1667,353299,3
1959,Mahilyow,Belarus,BY,53.9167,30.35,353110,3
1960,Osh,Kyrgyzstan,KG,40.5333,72.7833,353080,3
1961,Kita-ku,Japan,JP,35.75,139.7333,353058,3
1962,Gimpo,"Korea, South",KR,37.7,126.6,352683,3
1963,Corrientes,Argentina,AR,-27.4833,-58.8167,352646,3
1964,Thari Mir Wah,Pakistan,PK,27.0683,68.6023,352491,3
1965,Nara,Japan,JP,34.6844,135.805,352377,3
1966,Vladimir,Russia,RU,56.1286,40.4058,352347,3
1967,Sinŭiju,"Korea, North",KP,40.1,124.4,352000,3
1968,Oruro,Bolivia,BO,-17.9667,-67.1167,351802,3
1969,Arkhangelsk,Russia,RU,64.5431,40.5375,351488,3
1970,Batangas,Philippines,PH,13.83,121,351437,3
1971,Ahmadnagar,India,IN,19.08,74.73,350859,3
1972,Varna,Bulgaria,BG,43.2114,27.9111,350745,3
1973,Tarsus,Turkey,TR,36.9165,34.8951,350732,3
1974,Sarıyer,Turkey,TR,41.1669,29.0572,350454,3
1975,Semey,Kazakhstan,KZ,50.4333,80.2667,350201,3
1976,Holguín,Cuba,CU,20.8872,-76.2631,350191,3
1977,Tungi,Bangladesh,BD,23.8915,90.4023,350000,3
1978,Godē,Ethiopia,ET,5.9527,43.5516,350000,3
1979,Sawrān,Iraq,IQ,36.6532,44.5441,350000,3
1980,An Nhơn,Vietnam,VN,13.917,109.083,350000,3
1981,Olinda,Brazil,BR,-8.0089,-34.855,349976,3
1982,Praia Grande,Brazil,BR,-24.0058,-46.4028,349935,3
1983,Shinjuku,Japan,JP,35.7014,139.7097,349385,3
1984,Antofagasta,Chile,CL,-23.65,-70.4,348517,3
1985,Meram,Turkey,TR,37.8364,32.4383,348325,3
1986,Cascavel,Brazil,BR,-24.9558,-53.4553,348051,3
1987,Pamukkale,Turkey,TR,37.9167,29.1167,347926,3
1988,Canoas,Brazil,BR,-29.92,-51.18,347657,3
1989,Takatsuki,Japan,JP,34.8461,135.6175,347496,3
1990,Yidu,China,CN,30.378,111.45,347388,3
1991,António Enes,Mozambique,MZ,-16.2308,39.9105,347175,3
1992,Plovdiv,Bulgaria,BG,42.1434,24.751,346893,3
1993,Central Coast,Australia,AU,-33.3,151.2,346596,3
1994,Honolulu,United States,US,21.3294,-157.846,346323,3
1995,Karşıyaka,Turkey,TR,38.4594,27.1153,346264,3
1996,Shāhjānpur,India,IN,27.88,79.91,346103,3
1997,Gwagwalada,Nigeria,NG,8.9392,7.0758,346000,3
1998,Āvadi,India,IN,13.1147,80.1098,345996,3
1999,Tanch’ŏn,"Korea, North",KP,40.458,128.911,345875,3
2000,Greensboro,United States,US,36.0956,-79.8271,345858,3
2001,Khānāpur,India,IN,15.6394,74.5083,345839,3
2002,Wad Medani,Sudan,SD,14.4,33.51,345290,3
2003,Fort Wayne,United States,US,41.0888,-85.1436,345279,3
2004,Kūstī,Sudan,SD,13.17,32.66,345068,3
2005,Belfast,United Kingdom,GB,54.5967,-5.93,345006,3
2006,Cuddapah,India,IN,14.47,78.82,344893,3
2007,Nakano,Japan,JP,35.7074,139.6638,344880,3
2008,Yong’an,China,CN,25.942,117.365,344793,3
2009,Alamādi,India,IN,13.1097,80.0972,344701,3
2010,Carapicuíba,Brazil,BR,-23.5228,-46.8358,344596,3
2011,Anaheim,United States,US,33.839,-117.8574,344553,3
2012,Brest,Belarus,BY,52.1347,23.6569,344470,3
2013,Ōtsu,Japan,JP,35.0167,135.85,343991,3
2014,Maseru,Lesotho,LS,-29.31,27.48,343541,3
2015,Pavlodar,Kazakhstan,KZ,52.3,76.95,343091,3
2016,Chon Buri,Thailand,TH,13.3611,100.985,342959,3
2017,Naga City,Philippines,PH,13.6244,123.1864,342769,3
2018,Vahdat,Tajikistan,TJ,38.5531,69.0206,342700,3
2019,Florianópolis,Brazil,BR,-27.5933,-48.553,342315,3
2020,Paulista,Brazil,BR,-7.9408,-34.8728,342167,3
2021,Sfax,Tunisia,TN,34.74,10.76,341999,3
2022,Rājahmundry,India,IN,16.98,81.78,341831,3
2023,Koshigaya,Japan,JP,35.8911,139.7909,341784,3
2024,Hongjiang,China,CN,27.191,109.819,341706,3
2025,Yeşilyurt,Turkey,TR,38.2961,38.2489,341654,3
2026,Vũng Tàu,Vietnam,VN,10.3833,107.1167,341552,3
2027,Jeonju,"Korea, South",KR,35.8167,127.15,341545,3
2028,Alwar,India,IN,27.5498,76.6355,341422,3
2029,Huadian,China,CN,42.972,126.746,341308,3
2030,Tokorozawa,Japan,JP,35.7996,139.4686,341289,3
2031,Sumqayıt,Azerbaijan,AZ,40.5961,49.67,341200,3
